time_boot_ms,Roll,Pitch,Yaw,Alt,Lat,Lng,Q1,Q2,Q3,Q4
74656.972,-0.61,-0.44,0.2,0.3799999952316284,0,0,0.9999763369560242,-0.005389609839767218,-0.00388573226518929,0.0017851816955953836
74697,-0.61,-0.44,0.2,0.3799999952316284,0,0,0.999976396560669,-0.005376864690333605,-0.003887004917487502,0.0017740637995302677
74737.44,-0.61,-0.44,0.2,0.1599999964237213,0,0,0.9999763369560242,-0.005378300324082375,-0.0038870912976562977,0.0017811808502301574
74776.924,-0.61,-0.44,0.2,0.1599999964237213,0,0,0.9999762177467346,-0.005391622893512249,-0.0038939183577895164,0.0017915623029693961
74817.759,-0.61,-0.44,0.2,0.1599999964237213,0,0,0.9999762177467346,-0.0053938147611916065,-0.0038957337383180857,0.0017952646594494581
74857.36,-0.61,-0.44,0.2,0.12999999523162842,0,0,0.9999762773513794,-0.005385266616940498,-0.0038942734245210886,0.0017931036418303847
74896.918,-0.61,-0.44,0.21,0.12999999523162842,0,0,0.9999762177467346,-0.005392665509134531,-0.003895062254741788,0.0017997523536905646
74937.25,-0.62,-0.44,0.21,0.2199999988079071,0,0,0.9999760985374451,-0.0054069929756224155,-0.003897065296769142,0.0018071308732032776
74976.954,-0.62,-0.44,0.21,0.2199999988079071,0,0,0.9999760985374451,-0.005407318938523531,-0.003899896051734686,0.0018017655238509178
75017.621,-0.61,-0.44,0.21,0.2199999988079071,0,0,0.9999762177467346,-0.005390849895775318,-0.0038953085895627737,0.0017995253438130021
75057.121,-0.61,-0.44,0.21,0.08999999612569809,0,0,0.9999762177467346,-0.005387567449361086,-0.003894948400557041,0.001805666252039373
75096.967,-0.61,-0.44,0.21,0.08999999612569809,0,0,0.9999761581420898,-0.005399981513619423,-0.003896846668794751,0.001804075320251286
75137.211,-0.61,-0.44,0.21,0.2199999988079071,0,0,0.9999761581420898,-0.00539370346814394,-0.0038971295580267906,0.0018073146929964423
75176.943,-0.61,-0.44,0.21,0.2199999988079071,0,0,0.9999763369560242,-0.00537913478910923,-0.0038953733164817095,0.0018040576251223683
75218.06,-0.61,-0.44,0.21,0.2199999988079071,0,0,0.9999762177467346,-0.005386320874094963,-0.0038920415099710226,0.0018045245669782162
75257.158,-0.61,-0.44,0.21,0.20999999344348907,0,0,0.9999761581420898,-0.005396450869739056,-0.0038958052173256874,0.0017987072933465242
75296.867,-0.61,-0.44,0.21,0.20999999344348907,0,0,0.9999762773513794,-0.005381735507398844,-0.0038971498142927885,0.0018093704711645842
75337.194,-0.61,-0.44,0.21,0.08999999612569809,0,0,0.9999762773513794,-0.005371487699449062,-0.003896418958902359,0.001805093721486628
75377.001,-0.61,-0.44,0.21,0.08999999612569809,0,0,0.9999761581420898,-0.005385914817452431,-0.0038993079215288162,0.00180484214797616
75417.635,-0.61,-0.44,0.21,0.08999999612569809,0,0,0.9999761581420898,-0.005395702552050352,-0.0039024055004119873,0.0018109874799847603
75457.179,-0.61,-0.44,0.21,0.14000000059604645,0,0,0.9999762773513794,-0.0053838458843529224,-0.0039050946943461895,0.0018110487144440413
75496.88,-0.61,-0.44,0.21,0.14000000059604645,0,0,0.9999762773513794,-0.005376212764531374,-0.0038979179225862026,0.001800862024538219
75537.261,-0.61,-0.44,0.21,-0.019999999552965164,0,0,0.9999762177467346,-0.005388770252466202,-0.0039012846536934376,0.0018057177076116204
75577.28,-0.61,-0.44,0.21,-0.019999999552965164,0,0,0.9999762177467346,-0.005392702762037516,-0.0039026944432407618,0.001813781913369894
75617.51,-0.61,-0.44,0.21,-0.019999999552965164,0,0,0.9999762773513794,-0.005379536654800177,-0.003904020180925727,0.0018113241530954838
75657.115,-0.61,-0.44,0.21,-0.03999999910593033,0,0,0.9999763369560242,-0.005375745240598917,-0.003897749586030841,0.001804864383302629
75696.956,-0.61,-0.44,0.21,-0.03999999910593033,0,0,0.9999761581420898,-0.005385773256421089,-0.003898194758221507,0.0018089216900989413
75737.26,-0.61,-0.44,0.21,0.04999999701976776,0,0,0.9999762773513794,-0.005384278949350119,-0.0039015021175146103,0.0018083923496305943
75777.16,-0.61,-0.44,0.21,0.04999999701976776,0,0,0.9999762773513794,-0.005378737114369869,-0.0039016585797071457,0.0017995601519942284
75817.424,-0.61,-0.44,0.21,0.04999999701976776,0,0,0.9999762177467346,-0.005375186447054148,-0.003905828110873699,0.001807818771339953
75857.145,-0.61,-0.44,0.21,0.11999999731779099,0,0,0.9999762177467346,-0.00538462121039629,-0.00391028169542551,0.0018182898638769984
75896.911,-0.61,-0.44,0.21,0.11999999731779099,0,0,0.9999761581420898,-0.005382093135267496,-0.00391762051731348,0.0018138193991035223
75937.313,-0.61,-0.44,0.21,-0.029999999329447746,0,0,0.9999762177467346,-0.005369976162910461,-0.003917980007827282,0.0018108340445905924
75977.147,-0.61,-0.44,0.21,-0.029999999329447746,0,0,0.9999762177467346,-0.005370704457163811,-0.003921180032193661,0.001817157375626266
76017.345,-0.61,-0.44,0.21,-0.029999999329447746,0,0,0.9999762177467346,-0.005380737595260143,-0.003924408927559853,0.0018193589057773352
76057.105,-0.61,-0.44,0.21,-0.019999999552965164,0,0,0.9999761581420898,-0.005377959460020065,-0.003928017802536488,0.001814226619899273
76096.986,-0.61,-0.44,0.21,-0.019999999552965164,0,0,0.9999762177467346,-0.005366910714656115,-0.003931744489818811,0.0018084985204041004
76137.25,-0.61,-0.44,0.21,-0.10999999940395355,0,0,0.9999761581420898,-0.005377000197768211,-0.0039332532323896885,0.0018197620520368218
76177.118,-0.61,-0.44,0.21,-0.10999999940395355,0,0,0.9999760389328003,-0.005385395139455795,-0.003936873748898506,0.0018161569023504853
76217.761,-0.61,-0.44,0.21,-0.10999999940395355,0,0,0.9999761581420898,-0.005369177088141441,-0.0039365473203361034,0.001815255032852292
76257.197,-0.61,-0.45,0.21,0.14000000059604645,0,0,0.9999761581420898,-0.005358862690627575,-0.003937143832445145,0.0018164932262152433
76297.018,-0.61,-0.45,0.21,0.14000000059604645,0,0,0.9999762177467346,-0.0053626117296516895,-0.003942497540265322,0.0018157556187361479
76337.205,-0.61,-0.45,0.21,0.14000000059604645,0,0,0.9999760985374451,-0.005370285827666521,-0.003948249388486147,0.0018167594680562615
76377.159,-0.61,-0.45,0.21,0.14000000059604645,0,0,0.9999760985374451,-0.005361506715416908,-0.0039455583319067955,0.001823524245992303
76417.445,-0.61,-0.45,0.21,0.14000000059604645,0,0,0.9999762773513794,-0.005351174157112837,-0.003942849580198526,0.00182356929872185
76457.17,-0.61,-0.45,0.21,0.07000000029802322,0,0,0.9999761581420898,-0.00536431884393096,-0.0039433385245501995,0.0018276529153808951
76496.959,-0.61,-0.45,0.21,0.07000000029802322,0,0,0.9999760985374451,-0.00536624388769269,-0.003948131110519171,0.0018370195757597685
76537.319,-0.61,-0.45,0.21,0.14000000059604645,0,0,0.9999760985374451,-0.0053560370579361916,-0.003948973026126623,0.001837214338593185
76577.169,-0.61,-0.45,0.21,0.14000000059604645,0,0,0.9999761581420898,-0.005352335516363382,-0.003953908570110798,0.001828668056987226
76617.359,-0.61,-0.45,0.21,0.14000000059604645,0,0,0.9999760389328003,-0.0053624967113137245,-0.003959484864026308,0.0018379518296569586
76657.209,-0.61,-0.45,0.21,0.07000000029802322,0,0,0.9999760389328003,-0.005365259945392609,-0.003960695117712021,0.0018436324317008257
76696.887,-0.61,-0.45,0.21,0.07000000029802322,0,0,0.9999761581420898,-0.005353657528758049,-0.003958606161177158,0.0018402546411380172
76737.252,-0.61,-0.45,0.21,0.14000000059604645,0,0,0.9999760985374451,-0.0053519438952207565,-0.003964025527238846,0.0018423685105517507
76777.229,-0.61,-0.45,0.21,0.14000000059604645,0,0,0.9999759793281555,-0.005361213348805904,-0.0039710188284516335,0.001854022848419845
76817.432,-0.61,-0.45,0.21,0.14000000059604645,0,0,0.9999759793281555,-0.005360593553632498,-0.003973932936787605,0.0018507487839087844
76857.108,-0.61,-0.45,0.21,-0.009999999776482582,0,0,0.9999760389328003,-0.005355493165552616,-0.003978448454290628,0.0018434860976412892
76896.866,-0.61,-0.45,0.21,-0.009999999776482582,0,0,0.9999759793281555,-0.005362092982977629,-0.003981400281190872,0.0018492063973098993
76937.214,-0.61,-0.45,0.21,-0.07000000029802322,0,0,0.999975860118866,-0.005372447427362204,-0.003984350245445967,0.0018613954307511449
76977.121,-0.61,-0.45,0.21,-0.07000000029802322,0,0,0.999975860118866,-0.005369553808122873,-0.003983232658356428,0.0018550893291831017
77017.513,-0.61,-0.45,0.21,-0.07000000029802322,0,0,0.9999759793281555,-0.005355693865567446,-0.003986389841884375,0.0018515768460929394
77057.063,-0.61,-0.45,0.21,0,0,0,0.999975860118866,-0.0053595807403326035,-0.003992842510342598,0.0018612239509820938
77096.893,-0.61,-0.45,0.21,0,0,0,0.9999758005142212,-0.005370255094021559,-0.003993137273937464,0.001862107077613473
77137.227,-0.61,-0.45,0.21,0.009999999776482582,0,0,0.999975860118866,-0.005363977048546076,-0.003995378967374563,0.0018632558640092611
77177.147,-0.61,-0.45,0.21,0.009999999776482582,0,0,0.9999759197235107,-0.00535242585465312,-0.003996687475591898,0.0018667238764464855
77217.554,-0.61,-0.45,0.21,0.009999999776482582,0,0,0.9999758005142212,-0.005357402842491865,-0.003992058336734772,0.0018737558275461197
77257.514,-0.61,-0.45,0.21,0.009999999776482582,0,0,0.999975860118866,-0.0053627388551831245,-0.00398867204785347,0.001872898661531508
77296.953,-0.61,-0.45,0.21,0.009999999776482582,0,0,0.9999759793281555,-0.005352666135877371,-0.003981441259384155,0.0018775552744045854
77337.213,-0.61,-0.45,0.21,-0.009999999776482582,0,0,0.9999759793281555,-0.005346701946109533,-0.003973799291998148,0.001880394178442657
77377.198,-0.61,-0.45,0.21,-0.009999999776482582,0,0,0.9999759197235107,-0.005356127396225929,-0.003975810017436743,0.0018762944964691997
77417.155,-0.61,-0.45,0.21,-0.009999999776482582,0,0,0.9999759197235107,-0.0053634196519851685,-0.00397324375808239,0.0018826740561053157
77457.203,-0.61,-0.45,0.21,0.029999999329447746,0,0,0.9999759793281555,-0.005355482921004295,-0.003975041210651398,0.0018839361146092415
77497.159,-0.61,-0.45,0.21,0.029999999329447746,0,0,0.9999759793281555,-0.005351777654141188,-0.003973710350692272,0.001880382769741118
77537.22,-0.61,-0.45,0.21,0.07999999821186066,0,0,0.999975860118866,-0.005363941192626953,-0.003972770180553198,0.001884294906631112
77577.202,-0.61,-0.45,0.22,0.07999999821186066,0,0,0.999975860118866,-0.00536268251016736,-0.003973656799644232,0.0018882399890571833
77617.172,-0.61,-0.45,0.22,0.07999999821186066,0,0,0.9999760389328003,-0.005352272652089596,-0.003971707541495562,0.0018892167136073112
77657.13,-0.61,-0.45,0.22,0.19999998807907104,0,0,0.9999760389328003,-0.005352822132408619,-0.003966467920690775,0.0018884444143623114
77697.454,-0.61,-0.45,0.22,0.19999998807907104,0,0,0.9999759197235107,-0.005358158145099878,-0.003963211085647345,0.0018948214128613472
77737.404,-0.61,-0.45,0.22,0.07000000029802322,0,0,0.9999759197235107,-0.005358527880162001,-0.003960722591727972,0.0018990426324307919
77777.102,-0.61,-0.45,0.22,0.07000000029802322,0,0,0.9999760389328003,-0.0053456248715519905,-0.003963076043874025,0.0018886945908889174
77817.188,-0.61,-0.45,0.22,0.07000000029802322,0,0,0.9999760389328003,-0.005346142221242189,-0.003958865534514189,0.001887134974822402
77857.203,-0.61,-0.45,0.22,0.09999999403953552,0,0,0.9999760389328003,-0.0053515383042395115,-0.003954276908189058,0.0018954684492200613
77897.369,-0.61,-0.45,0.22,0.09999999403953552,0,0,0.9999760985374451,-0.005350776948034763,-0.003945098724216223,0.0018875865498557687
77937.176,-0.61,-0.45,0.21,-0.12999999523162842,0,0,0.9999761581420898,-0.005335253197699785,-0.003946791868656874,0.0018831391353160143
77977.109,-0.61,-0.45,0.22,-0.12999999523162842,0,0,0.9999761581420898,-0.00533785205334425,-0.003942348062992096,0.0018934323452413082
78017.116,-0.61,-0.45,0.22,-0.12999999523162842,0,0,0.9999761581420898,-0.005350424908101559,-0.003941465634852648,0.0018980088643729687
78057.158,-0.61,-0.44,0.22,-0.1599999964237213,0,0,0.9999761581420898,-0.005341735668480396,-0.003935683984309435,0.0018962372560054064
78097.643,-0.61,-0.44,0.22,-0.1599999964237213,0,0,0.9999762177467346,-0.005333512555807829,-0.003931734710931778,0.0019010398536920547
78137.209,-0.61,-0.44,0.22,-0.3100000023841858,0,0,0.9999762177467346,-0.005335547961294651,-0.003932404797524214,0.0019033080898225307
78177.096,-0.61,-0.44,0.22,-0.3100000023841858,0,0,0.9999761581420898,-0.0053419191390275955,-0.003936761990189552,0.001904698321595788
78217.457,-0.61,-0.44,0.22,-0.3100000023841858,0,0,0.9999761581420898,-0.0053368229418993,-0.003937180154025555,0.0019124328391626477
78257.233,-0.61,-0.44,0.22,-0.019999999552965164,0,0,0.9999761581420898,-0.0053357454016804695,-0.003936753608286381,0.001912684296257794
78297.332,-0.61,-0.45,0.22,-0.019999999552965164,0,0,0.9999760985374451,-0.0053418418392539024,-0.003940139897167683,0.001917480956763029
78337.273,-0.61,-0.45,0.22,0.1599999964237213,0,0,0.9999760985374451,-0.005348209757357836,-0.003943266347050667,0.0019212283659726381
78377.142,-0.61,-0.45,0.22,0.1599999964237213,0,0,0.9999761581420898,-0.00533646997064352,-0.003942287527024746,0.0019236344378441572
78417.138,-0.61,-0.45,0.22,0.1599999964237213,0,0,0.9999760985374451,-0.0053354124538600445,-0.003944695927202702,0.0019262708956375718
78457.297,-0.61,-0.45,0.22,0.12999999523162842,0,0,0.9999760985374451,-0.005345851182937622,-0.003940509166568518,0.00192783132661134
78497.391,-0.61,-0.45,0.22,0.12999999523162842,0,0,0.9999760985374451,-0.005344359669834375,-0.003943496383726597,0.0019271719502285123
78537.233,-0.61,-0.45,0.22,0.03999999910593033,0,0,0.9999760985374451,-0.005334962625056505,-0.003943460062146187,0.0019289500778540969
78577.132,-0.61,-0.45,0.22,0.03999999910593033,0,0,0.9999760985374451,-0.005335177294909954,-0.003942656796425581,0.001928312936797738
78617.16,-0.61,-0.45,0.22,0.03999999910593033,0,0,0.9999760985374451,-0.005340451840311289,-0.003938193432986736,0.0019290243508294225
78657.182,-0.61,-0.45,0.22,-0.08999999612569809,0,0,0.9999760389328003,-0.005338997580111027,-0.003938103094696999,0.001931912498548627
78697.347,-0.61,-0.45,0.22,-0.08999999612569809,0,0,0.9999760985374451,-0.005335769150406122,-0.003938676323741674,0.0019271671772003174
78737.239,-0.61,-0.45,0.22,-0.029999999329447746,0,0,0.9999760985374451,-0.0053456551395356655,-0.00394084770232439,0.0019245058065280318
78777.154,-0.61,-0.45,0.22,-0.029999999329447746,0,0,0.9999760389328003,-0.005354413762688637,-0.0039390637539327145,0.001931681763380766
78817.233,-0.61,-0.44,0.22,-0.029999999329447746,0,0,0.9999760985374451,-0.005352402105927467,-0.0039319125935435295,0.0019254928920418024
78857.344,-0.61,-0.44,0.22,-0.009999999776482582,0,0,0.9999760985374451,-0.005346162710338831,-0.003932909108698368,0.0019207230070605874
78897.361,-0.61,-0.44,0.22,-0.009999999776482582,0,0,0.9999760389328003,-0.005355792585760355,-0.003932225052267313,0.0019192389445379376
78937.334,-0.61,-0.44,0.22,-0.3400000035762787,0,0,0.9999759793281555,-0.0053624846041202545,-0.00393547210842371,0.0019231077749282122
78977.169,-0.61,-0.44,0.22,-0.3400000035762787,0,0,0.9999759793281555,-0.005359616130590439,-0.003934629261493683,0.0019238815875723958
79017.192,-0.61,-0.44,0.22,-0.3400000035762787,0,0,0.9999760389328003,-0.005358715075999498,-0.003934166394174099,0.0019215323263779283
79057.207,-0.61,-0.44,0.22,-0.23999999463558197,0,0,0.9999759197235107,-0.005364732816815376,-0.003936127759516239,0.0019289510091766715
79097.331,-0.61,-0.45,0.22,-0.23999999463558197,0,0,0.9999759197235107,-0.005366988945752382,-0.003939271904528141,0.0019304280867800117
79137.295,-0.61,-0.45,0.22,-0.22999998927116394,0,0,0.9999759793281555,-0.005362795665860176,-0.003938740584999323,0.0019189721206203103
79177.175,-0.61,-0.45,0.22,-0.22999998927116394,0,0,0.9999759793281555,-0.005359139293432236,-0.003941998817026615,0.0019230133621022105
79217.51,-0.61,-0.45,0.22,-0.22999998927116394,0,0,0.9999759793281555,-0.005365688353776932,-0.003943353891372681,0.0019300421699881554
79257.169,-0.61,-0.45,0.22,-0.17999999225139618,0,0,0.9999759197235107,-0.005364027805626392,-0.0039461757987737656,0.0019295169040560722
79297.471,-0.61,-0.45,0.22,-0.17999999225139618,0,0,0.9999759197235107,-0.005361844319850206,-0.0039472985081374645,0.0019266336457803845
79337.251,-0.61,-0.45,0.22,-0.14999999105930328,0,0,0.9999759197235107,-0.00536002591252327,-0.0039503793232142925,0.0019291287753731012
79377.068,-0.61,-0.45,0.22,-0.14999999105930328,0,0,0.999975860118866,-0.005371885374188423,-0.003954792395234108,0.0019317290280014277
79417.193,-0.61,-0.45,0.22,-0.14999999105930328,0,0,0.999975860118866,-0.005371264182031155,-0.003960908856242895,0.0019342385930940509
79457.171,-0.61,-0.45,0.22,0.04999999701976776,0,0,0.9999758005142212,-0.005362312309443951,-0.003964300733059645,0.0019379897275939584
79497.335,-0.61,-0.45,0.22,0.04999999701976776,0,0,0.999975860118866,-0.0053660133853554726,-0.003959979396313429,0.001936859218403697
79537.377,-0.61,-0.45,0.22,-0.009999999776482582,0,0,0.9999758005142212,-0.005376914981752634,-0.0039622294716537,0.0019385439809411764
79577.07,-0.61,-0.45,0.22,-0.009999999776482582,0,0,0.9999758005142212,-0.0053732008673250675,-0.003964710049331188,0.001944308285601437
79617.177,-0.61,-0.45,0.22,-0.009999999776482582,0,0,0.9999758005142212,-0.00536715192720294,-0.003966319374740124,0.0019464920042082667
79657.18,-0.61,-0.45,0.22,0.04999999701976776,0,0,0.9999758005142212,-0.005372751969844103,-0.003968050703406334,0.0019447144586592913
79697.339,-0.61,-0.45,0.22,0.04999999701976776,0,0,0.9999758005142212,-0.005381505470722914,-0.003970051649957895,0.00194256950635463
79737.237,-0.61,-0.45,0.22,-0.019999999552965164,0,0,0.9999758005142212,-0.005378273315727711,-0.003970978315919638,0.0019430930260568857
79777.352,-0.61,-0.45,0.22,-0.019999999552965164,0,0,0.9999758005142212,-0.005378729663789272,-0.003970068879425526,0.001944289542734623
79817.201,-0.61,-0.45,0.22,-0.019999999552965164,0,0,0.9999756813049316,-0.0053839231841266155,-0.003974684979766607,0.0019493437139317393
79857.128,-0.61,-0.45,0.22,-0.1899999976158142,0,0,0.9999755620956421,-0.005394970998167992,-0.0039757913909852505,0.001951676094904542
79897.381,-0.61,-0.45,0.22,-0.1899999976158142,0,0,0.9999756217002869,-0.005388839170336723,-0.00397544214501977,0.0019488818943500519
79937.255,-0.61,-0.45,0.22,-0.17000000178813934,0,0,0.9999756217002869,-0.00538691645488143,-0.003976022358983755,0.0019452054984867573
79977.152,-0.61,-0.45,0.22,-0.17000000178813934,0,0,0.9999756217002869,-0.00539384176954627,-0.003977921791374683,0.0019510634010657668
80017.164,-0.61,-0.45,0.22,-0.17000000178813934,0,0,0.9999756217002869,-0.005395959131419659,-0.003981058951467276,0.0019541361834853888
80057.168,-0.61,-0.45,0.22,-0.08999999612569809,0,0,0.9999756217002869,-0.0053899553604424,-0.003978448919951916,0.0019506843527778983
80097.302,-0.61,-0.45,0.22,-0.08999999612569809,0,0,0.9999756217002869,-0.005389577243477106,-0.003976883366703987,0.0019508154364302754
80137.208,-0.61,-0.45,0.22,0.07999999821186066,0,0,0.9999755620956421,-0.005395868327468634,-0.003978625405579805,0.001952596241608262
80177.119,-0.61,-0.45,0.22,0.07999999821186066,0,0,0.9999756217002869,-0.005391684360802174,-0.003977199550718069,0.0019511313876137137
80217.529,-0.61,-0.45,0.22,0.07999999821186066,0,0,0.9999756217002869,-0.005388785619288683,-0.00397969875484705,0.001949419267475605
80257.275,-0.61,-0.45,0.22,-0.08999999612569809,0,0,0.9999756217002869,-0.005387588404119015,-0.0039751725271344185,0.0019471958512440324
80297.349,-0.61,-0.45,0.22,-0.08999999612569809,0,0,0.9999756217002869,-0.005399479530751705,-0.003973943181335926,0.0019514987943693995
80337.229,-0.61,-0.45,0.22,-0.14000000059604645,0,0,0.9999756217002869,-0.0053956895135343075,-0.003968494012951851,0.0019462178461253643
80377.147,-0.61,-0.45,0.22,-0.14000000059604645,0,0,0.9999756813049316,-0.005387651268392801,-0.003975119441747665,0.0019435437861829996
80417.197,-0.61,-0.45,0.22,-0.14000000059604645,0,0,0.9999756217002869,-0.005390144418925047,-0.003977860324084759,0.0019399038283154368
80457.141,-0.61,-0.45,0.22,-0.03999999910593033,0,0,0.9999756217002869,-0.005394065286964178,-0.003974823746830225,0.0019381166202947497
80497.391,-0.61,-0.45,0.22,-0.03999999910593033,0,0,0.9999756217002869,-0.005395307671278715,-0.003968644887208939,0.0019419639138504863
80537.278,-0.61,-0.45,0.22,-0.19999998807907104,0,0,0.9999756813049316,-0.005391075275838375,-0.003968066535890102,0.0019418057054281235
80577.17,-0.61,-0.45,0.22,-0.19999998807907104,0,0,0.9999756813049316,-0.005392307415604591,-0.0039659361355006695,0.0019470903789624572
80617.314,-0.61,-0.45,0.22,-0.19999998807907104,0,0,0.9999756813049316,-0.00539381243288517,-0.0039622304029762745,0.001951456069946289
80657.21,-0.61,-0.45,0.22,0.07999999821186066,0,0,0.9999756813049316,-0.005397645290941,-0.003962537739425898,0.0019521665526553988
80697.346,-0.61,-0.45,0.22,0.07999999821186066,0,0,0.9999756217002869,-0.005396110471338034,-0.0039648073725402355,0.0019503379007801414
80737.311,-0.62,-0.45,0.22,0,0,0,0.9999756217002869,-0.005403741262853146,-0.003971314523369074,0.0019500501221045852
80777.187,-0.62,-0.45,0.22,0,0,0,0.9999755620956421,-0.005412177182734013,-0.003974766470491886,0.0019503968069329858
80817.225,-0.62,-0.45,0.22,0,0,0,0.9999756217002869,-0.00540879787877202,-0.003972302190959454,0.0019503855146467686
80857.147,-0.62,-0.45,0.22,-0.05999999865889549,0,0,0.9999756217002869,-0.005407480988651514,-0.0039680697955191135,0.0019469716353341937
80897.376,-0.62,-0.45,0.22,-0.05999999865889549,0,0,0.9999755620956421,-0.005410943645983934,-0.003973336890339851,0.0019483395153656602
80937.29,-0.62,-0.45,0.22,0.10999999940395355,0,0,0.9999755620956421,-0.005407153163105249,-0.003977534826844931,0.001953322673216462
80977.123,-0.61,-0.45,0.22,0.10999999940395355,0,0,0.9999755620956421,-0.005399090237915516,-0.003981196787208319,0.0019515566527843475
81017.196,-0.61,-0.45,0.22,0.10999999940395355,0,0,0.9999756217002869,-0.005399592686444521,-0.003979898057878017,0.0019472421845421195
81057.189,-0.62,-0.45,0.22,-0.07000000029802322,0,0,0.9999755620956421,-0.005407573655247688,-0.003980429843068123,0.001954165054485202
81097.277,-0.62,-0.45,0.22,-0.07000000029802322,0,0,0.9999755620956421,-0.0054122768342494965,-0.003981259185820818,0.0019510635174810886
81137.296,-0.62,-0.45,0.22,-0.1899999976158142,0,0,0.9999755024909973,-0.005411463789641857,-0.003986547235399485,0.0019468701211735606
81177.076,-0.62,-0.45,0.22,-0.1899999976158142,0,0,0.9999755024909973,-0.005410604178905487,-0.003985783085227013,0.001949499361217022
81217.379,-0.62,-0.45,0.22,-0.1899999976158142,0,0,0.9999754428863525,-0.005416207946836948,-0.003987390547990799,0.0019508595578372478
81257.188,-0.62,-0.45,0.22,-0.08999999612569809,0,0,0.9999753832817078,-0.005416867323219776,-0.003982348833233118,0.0019587588030844927
81297.408,-0.62,-0.45,0.22,-0.08999999612569809,0,0,0.9999755024909973,-0.00540930824354291,-0.003980523440986872,0.0019599066581577063
81337.305,-0.62,-0.45,0.22,-0.20999999344348907,0,0,0.9999754428863525,-0.005413984879851341,-0.003976475913077593,0.001960091758519411
81377.097,-0.62,-0.45,0.22,-0.20999999344348907,0,0,0.9999754428863525,-0.005417872220277786,-0.003978208638727665,0.001959095476195216
81417.163,-0.62,-0.45,0.22,-0.20999999344348907,0,0,0.9999753832817078,-0.0054221623577177525,-0.0039786286652088165,0.0019573126919567585
81457.269,-0.62,-0.45,0.22,0.019999999552965164,0,0,0.9999755024909973,-0.005416784901171923,-0.003977395128458738,0.001952407998032868
81497.299,-0.62,-0.45,0.22,0.019999999552965164,0,0,0.9999754428863525,-0.005417183972895145,-0.0039794971235096455,0.0019549247808754444
81537.274,-0.62,-0.45,0.22,-0.029999999329447746,0,0,0.9999755024909973,-0.005419211462140083,-0.003980431705713272,0.0019512927392497659
81577.167,-0.62,-0.45,0.22,-0.029999999329447746,0,0,0.9999753832817078,-0.005419479217380285,-0.003982927184551954,0.0019538088236004114
81617.167,-0.62,-0.45,0.22,-0.029999999329447746,0,0,0.9999753832817078,-0.0054167406633496284,-0.003989099059253931,0.001953808357939124
81657.175,-0.62,-0.45,0.22,0.08999999612569809,0,0,0.9999753832817078,-0.005428309552371502,-0.003989279270172119,0.0019547129049897194
81697.329,-0.62,-0.45,0.22,0.08999999612569809,0,0,0.999975323677063,-0.005427252966910601,-0.0039938571862876415,0.0019603651016950607
81737.244,-0.62,-0.45,0.22,0.1899999976158142,0,0,0.9999753832817078,-0.005418411456048489,-0.003988988697528839,0.0019562309607863426
81777.139,-0.62,-0.45,0.22,0.1899999976158142,0,0,0.9999753832817078,-0.005413994193077087,-0.003992019686847925,0.001954522216692567
81817.185,-0.62,-0.45,0.22,0.1899999976158142,0,0,0.9999753832817078,-0.005415712017565966,-0.003994122613221407,0.0019582367967814207
81857.166,-0.62,-0.45,0.22,-0.07000000029802322,0,0,0.9999753832817078,-0.005416710861027241,-0.003998578991740942,0.001962207956239581
81897.383,-0.62,-0.45,0.22,-0.07000000029802322,0,0,0.9999754428863525,-0.005409763194620609,-0.003996707499027252,0.0019693735521286726
81937.22,-0.62,-0.45,0.22,0.17999999225139618,0,0,0.9999754428863525,-0.005405545234680176,-0.003997097723186016,0.00196291645988822
81977.15,-0.62,-0.45,0.22,0.17999999225139618,0,0,0.9999753832817078,-0.005415068939328194,-0.003994354046881199,0.0019631392788141966
82017.15,-0.62,-0.45,0.22,0.17999999225139618,0,0,0.999975323677063,-0.005417953711003065,-0.003997629974037409,0.0019704073201864958
82057.22,-0.62,-0.45,0.22,0.08999999612569809,0,0,0.9999753832817078,-0.005412834696471691,-0.003998054191470146,0.001971578923985362
82097.367,-0.62,-0.45,0.23,0.08999999612569809,0,0,0.999975323677063,-0.005417212378233671,-0.003996780142188072,0.001977283740416169
82137.255,-0.62,-0.45,0.23,-0.08999999612569809,0,0,0.9999753832817078,-0.005422393325716257,-0.003991295117884874,0.001982189482077956
82177.155,-0.62,-0.45,0.23,-0.08999999612569809,0,0,0.999975323677063,-0.005418870598077774,-0.003989872522652149,0.0019900607876479626
82217.634,-0.62,-0.45,0.23,-0.08999999612569809,0,0,0.9999753832817078,-0.005414103623479605,-0.003989772871136665,0.0019896477460861206
82257.185,-0.62,-0.45,0.23,0.07999999821186066,0,0,0.999975323677063,-0.005415572784841061,-0.003988629672676325,0.0019924361258745193
82297.511,-0.62,-0.45,0.23,0.07999999821186066,0,0,0.999975323677063,-0.005416709464043379,-0.003986259922385216,0.0019951006397604942
82337.244,-0.62,-0.45,0.23,0.23999999463558197,0,0,0.9999753832817078,-0.005415542516857386,-0.00399110559374094,0.001990516670048237
82377.153,-0.62,-0.45,0.23,0.23999999463558197,0,0,0.9999753832817078,-0.005406266078352928,-0.003992634825408459,0.001997945597395301
82417.206,-0.62,-0.45,0.23,0.23999999463558197,0,0,0.9999753832817078,-0.005409994628280401,-0.004001269116997719,0.002005218295380473
82457.158,-0.62,-0.45,0.23,0.019999999552965164,0,0,0.9999752044677734,-0.005417834036052227,-0.004001565743237734,0.0020050338935106993
82497.33,-0.62,-0.45,0.23,0.019999999552965164,0,0,0.999975323677063,-0.005409492179751396,-0.004003266338258982,0.0020026101265102625
82537.417,-0.62,-0.45,0.23,0.04999999701976776,0,0,0.999975323677063,-0.005402394104748964,-0.004005886614322662,0.0020055966451764107
82577.176,-0.62,-0.45,0.23,0.04999999701976776,0,0,0.9999753832817078,-0.0054067587479949,-0.0039994604885578156,0.002009181072935462
82617.193,-0.62,-0.45,0.23,0.04999999701976776,0,0,0.999975323677063,-0.005406268406659365,-0.004004973918199539,0.0020119384862482548
82657.177,-0.62,-0.45,0.23,0.12999999523162842,0,0,0.999975323677063,-0.005402886308729649,-0.004003557842224836,0.0020087705925107002
82697.285,-0.61,-0.45,0.23,0.12999999523162842,0,0,0.9999754428863525,-0.005397328175604343,-0.004001397639513016,0.002003222471103072
82737.261,-0.61,-0.45,0.23,0.04999999701976776,0,0,0.9999754428863525,-0.005400109104812145,-0.003998586907982826,0.002005888381972909
82777.203,-0.61,-0.45,0.23,0.04999999701976776,0,0,0.9999753832817078,-0.005401334259659052,-0.0039969696663320065,0.0020052718464285135
82817.165,-0.61,-0.45,0.23,0.04999999701976776,0,0,0.9999754428863525,-0.005398736335337162,-0.003999917767941952,0.002006441354751587
82857.183,-0.61,-0.45,0.23,0.04999999701976776,0,0,0.999975323677063,-0.005402313079684973,-0.004005958326160908,0.0020015062764286995
82897.341,-0.62,-0.45,0.23,0.04999999701976776,0,0,0.999975323677063,-0.005405167117714882,-0.004006003495305777,0.0020022052340209484
82937.226,-0.62,-0.45,0.23,0.12999999523162842,0,0,0.999975323677063,-0.0054060062393546104,-0.004009454511106014,0.0020072266925126314
82977.089,-0.61,-0.45,0.23,0.12999999523162842,0,0,0.9999753832817078,-0.005402043927460909,-0.004009883385151625,0.0020061610266566277
83017.142,-0.61,-0.45,0.23,0.12999999523162842,0,0,0.999975323677063,-0.0053999098017811775,-0.0040135979652404785,0.002005508868023753
83057.183,-0.62,-0.45,0.23,0.12999999523162842,0,0,0.999975323677063,-0.005402588751167059,-0.0040126983076334,0.0020068625453859568
83097.283,-0.61,-0.45,0.23,0.12999999523162842,0,0,0.999975323677063,-0.0053993226028978825,-0.004010059870779514,0.0020090832840651274
83137.454,-0.61,-0.45,0.23,0.029999999329447746,0,0,0.999975323677063,-0.005397231318056583,-0.0040088677778840065,0.0020118418615311384
83177.095,-0.61,-0.45,0.23,0.029999999329447746,0,0,0.999975323677063,-0.005395728629082441,-0.004012529272586107,0.002021573483943939
83217.503,-0.61,-0.45,0.23,0.029999999329447746,0,0,0.9999752640724182,-0.005400448571890593,-0.004018048755824566,0.0020249232184141874
83257.22,-0.61,-0.45,0.23,-0.09999999403953552,0,0,0.999975323677063,-0.005397488828748465,-0.004018045496195555,0.002016640268266201
83297.351,-0.61,-0.45,0.23,-0.09999999403953552,0,0,0.999975323677063,-0.005397995002567768,-0.004016732797026634,0.00201245560310781
83337.265,-0.61,-0.45,0.23,0.10999999940395355,0,0,0.999975323677063,-0.005397135391831398,-0.0040109422989189625,0.002015478443354368
83377.177,-0.61,-0.45,0.23,0.10999999940395355,0,0,0.999975323677063,-0.005401972681283951,-0.004008586052805185,0.0020121168345212936
83417.169,-0.61,-0.45,0.23,0.10999999940395355,0,0,0.999975323677063,-0.005397177767008543,-0.004015534184873104,0.0020115759689360857
83457.117,-0.61,-0.45,0.23,-0.019999999552965164,0,0,0.9999753832817078,-0.005391428712755442,-0.004009614232927561,0.0020145573653280735
83497.411,-0.61,-0.45,0.23,-0.019999999552965164,0,0,0.9999753832817078,-0.005395268555730581,-0.004009909927845001,0.0020121103152632713
83537.248,-0.61,-0.45,0.23,0.08999999612569809,0,0,0.999975323677063,-0.005394775420427322,-0.004006638191640377,0.0020111864432692528
83577.156,-0.61,-0.45,0.23,0.08999999612569809,0,0,0.9999753832817078,-0.005390159320086241,-0.004001927562057972,0.0020147173199802637
83617.142,-0.61,-0.45,0.23,0.08999999612569809,0,0,0.9999753832817078,-0.005386240780353546,-0.004002600442618132,0.0020131252240389585
83657.181,-0.61,-0.45,0.23,0.009999999776482582,0,0,0.9999754428863525,-0.005390197038650513,-0.003995059989392757,0.002015793928876519
83697.312,-0.61,-0.45,0.23,0.009999999776482582,0,0,0.9999754428863525,-0.005393763072788715,-0.003991147968918085,0.0020103214774280787
83737.295,-0.61,-0.45,0.23,-0.1899999976158142,0,0,0.9999754428863525,-0.005394028499722481,-0.003984577022492886,0.002009402262046933
83777.183,-0.61,-0.45,0.23,-0.1899999976158142,0,0,0.9999754428863525,-0.005397038068622351,-0.003983157686889172,0.002006949158385396
83817.181,-0.62,-0.45,0.23,-0.1899999976158142,0,0,0.9999754428863525,-0.005403392482548952,-0.003980573266744614,0.002011103555560112
83857.229,-0.62,-0.45,0.23,0.23999999463558197,0,0,0.9999753832817078,-0.005404336843639612,-0.003982878755778074,0.002016123617067933
83897.376,-0.61,-0.45,0.23,0.23999999463558197,0,0,0.9999754428863525,-0.005399118643254042,-0.003976971842348576,0.0020154269877821207
83937.2,-0.61,-0.45,0.23,0.38999998569488525,0,0,0.9999755024909973,-0.005397286266088486,-0.003979345317929983,0.002016215119510889
83977.269,-0.61,-0.45,0.23,0.38999998569488525,0,0,0.9999753832817078,-0.005395845975726843,-0.003982365597039461,0.0020189653150737286
84017.204,-0.61,-0.45,0.23,0.38999998569488525,0,0,0.9999754428863525,-0.00539258262142539,-0.003979350905865431,0.0020193406380712986
84057.189,-0.61,-0.45,0.23,-0.07999999821186066,0,0,0.9999754428863525,-0.005392591934651136,-0.003977364394813776,0.0020189713686704636
84097.362,-0.61,-0.45,0.23,-0.07999999821186066,0,0,0.9999755024909973,-0.005394423846155405,-0.003972487524151802,0.0020224156323820353
84137.331,-0.61,-0.45,0.23,0.19999998807907104,0,0,0.9999755024909973,-0.0053956168703734875,-0.003972604870796204,0.0020225769840180874
84177.09,-0.61,-0.45,0.23,0.19999998807907104,0,0,0.9999754428863525,-0.005395473446696997,-0.003973241429775953,0.0020253544207662344
84217.545,-0.61,-0.45,0.23,0.19999998807907104,0,0,0.9999754428863525,-0.005395084619522095,-0.0039734686724841595,0.0020273285917937756
84257.251,-0.61,-0.45,0.23,0.019999999552965164,0,0,0.9999754428863525,-0.005400086287409067,-0.003969751298427582,0.002029093913733959
84297.365,-0.61,-0.45,0.23,0.019999999552965164,0,0,0.9999754428863525,-0.00540206441655755,-0.003965113312005997,0.0020346390083432198
84337.268,-0.62,-0.45,0.23,0.3199999928474426,0,0,0.9999754428863525,-0.005403413902968168,-0.003967593424022198,0.0020331074483692646
84377.113,-0.62,-0.45,0.23,0.3199999928474426,0,0,0.9999754428863525,-0.005403233226388693,-0.003965063951909542,0.002029573544859886
84417.179,-0.62,-0.45,0.23,0.3199999928474426,0,0,0.9999754428863525,-0.005407204385846853,-0.0039638495072722435,0.002031724900007248
84457.1,-0.62,-0.45,0.23,0.09999999403953552,0,0,0.9999754428863525,-0.00540784141048789,-0.003963969647884369,0.0020344925578683615
84497.307,-0.62,-0.45,0.23,0.09999999403953552,0,0,0.9999754428863525,-0.005404144059866667,-0.003963509574532509,0.002037494909018278
84537.263,-0.62,-0.45,0.23,0.25999999046325684,0,0,0.9999754428863525,-0.005403881426900625,-0.003965029492974281,0.002037770114839077
84577.228,-0.62,-0.45,0.23,0.25999999046325684,0,0,0.9999754428863525,-0.005403056740760803,-0.003962085582315922,0.0020415945909917355
84617.221,-0.62,-0.45,0.23,0.25999999046325684,0,0,0.9999753832817078,-0.005406145006418228,-0.003963998053222895,0.0020492549519985914
84657.146,-0.62,-0.45,0.23,0.17000000178813934,0,0,0.9999753832817078,-0.005404859781265259,-0.003963700961321592,0.002052527852356434
84697.325,-0.61,-0.45,0.24,0.17000000178813934,0,0,0.9999754428863525,-0.005401005502790213,-0.003961019683629274,0.0020606510806828737
84737.296,-0.62,-0.45,0.23,-0.029999999329447746,0,0,0.9999754428863525,-0.005405770149081945,-0.003959024790674448,0.002059126738458872
84777.131,-0.62,-0.45,0.23,-0.029999999329447746,0,0,0.9999754428863525,-0.005406738258898258,-0.003956892527639866,0.00205612531863153
84817.341,-0.61,-0.45,0.23,-0.029999999329447746,0,0,0.9999754428863525,-0.005399271380156279,-0.003950143698602915,0.0020569998305290937
84857.201,-0.61,-0.45,0.23,0.2199999988079071,0,0,0.9999755024909973,-0.005399984307587147,-0.003952824044972658,0.0020562356803566217
84897.327,-0.62,-0.45,0.23,0.2199999988079071,0,0,0.9999754428863525,-0.005405348259955645,-0.003948455210775137,0.00205785664729774
84937.258,-0.61,-0.45,0.23,0.08999999612569809,0,0,0.9999754428863525,-0.0054013594053685665,-0.003949073608964682,0.0020595481619238853
84977.136,-0.62,-0.45,0.23,0.08999999612569809,0,0,0.9999754428863525,-0.005402372684329748,-0.003955748863518238,0.0020585316233336926
85017.168,-0.62,-0.45,0.24,0.08999999612569809,0,0,0.9999754428863525,-0.005405349191278219,-0.003951388411223888,0.002061064587906003
85057.175,-0.62,-0.45,0.24,0.4099999964237213,0,0,0.9999754428863525,-0.005407335236668587,-0.0039589907974004745,0.0020674269180744886
85097.416,-0.62,-0.45,0.24,0.4099999964237213,0,0,0.9999753832817078,-0.0054056765511631966,-0.003962362185120583,0.0020705903880298138
85137.234,-0.61,-0.45,0.24,0.4099999964237213,0,0,0.9999754428863525,-0.005401927512139082,-0.003958755172789097,0.0020741086918860674
85177.139,-0.61,-0.45,0.24,0.4099999964237213,0,0,0.9999753832817078,-0.005400919821113348,-0.003958184737712145,0.0020791119895875454
85217.614,-0.61,-0.45,0.24,0.4099999964237213,0,0,0.9999754428863525,-0.005398931913077831,-0.00395249854773283,0.0020770069677382708
85257.261,-0.61,-0.45,0.24,0.19999998807907104,0,0,0.9999755024909973,-0.005393201485276222,-0.003953628707677126,0.002080789767205715
85297.457,-0.61,-0.45,0.24,0.19999998807907104,0,0,0.9999754428863525,-0.0053922380320727825,-0.0039486754685640335,0.0020775077864527702
85337.224,-0.61,-0.45,0.24,0.4599999785423279,0,0,0.9999754428863525,-0.005391611717641354,-0.003946605138480663,0.0020802742801606655
85377.101,-0.61,-0.45,0.24,0.4599999785423279,0,0,0.9999754428863525,-0.005396511405706406,-0.0039466507732868195,0.0020813830196857452
85417.189,-0.61,-0.45,0.24,0.4599999785423279,0,0,0.9999754428863525,-0.00539389019832015,-0.003950879909098148,0.002085454761981964
85457.174,-0.61,-0.45,0.24,0.4899999797344208,0,0,0.9999754428863525,-0.005390147678554058,-0.003949465695768595,0.002083729486912489
85497.355,-0.61,-0.45,0.24,0.4899999797344208,0,0,0.9999754428863525,-0.005392758175730705,-0.0039530908688902855,0.0020896801725029945
85537.231,-0.61,-0.45,0.24,0.29999998211860657,0,0,0.9999754428863525,-0.005397262051701546,-0.003952869214117527,0.002088942565023899
85577.147,-0.61,-0.45,0.24,0.29999998211860657,0,0,0.9999754428863525,-0.005396528635174036,-0.003951174207031727,0.0020898529328405857
85617.228,-0.61,-0.45,0.24,0.29999998211860657,0,0,0.9999754428863525,-0.005399312358349562,-0.003948996774852276,0.0020877975039184093
85657.411,-0.62,-0.45,0.24,0.25,0,0,0.9999753832817078,-0.005403832998126745,-0.003947857301682234,0.002085351385176182
85697.309,-0.62,-0.45,0.24,0.25,0,0,0.9999753832817078,-0.00540537154302001,-0.003944541327655315,0.002086818451061845
85737.296,-0.61,-0.45,0.24,0.08999999612569809,0,0,0.9999755024909973,-0.005397340748459101,-0.003943025134503841,0.0020803245715796947
85777.164,-0.61,-0.45,0.24,0.08999999612569809,0,0,0.9999754428863525,-0.005401840899139643,-0.003939420450478792,0.002083656145259738
85817.168,-0.62,-0.45,0.24,0.08999999612569809,0,0,0.9999754428863525,-0.005402924958616495,-0.003940137103199959,0.0020872140303254128
85857.173,-0.61,-0.45,0.24,0.10999999940395355,0,0,0.9999754428863525,-0.005395987536758184,-0.003939142916351557,0.002089807530865073
85897.383,-0.61,-0.44,0.24,0.10999999940395355,0,0,0.9999755024909973,-0.005390635225921869,-0.003937414847314358,0.002086096443235874
85937.193,-0.61,-0.44,0.24,0.4899999797344208,0,0,0.9999755024909973,-0.005391824524849653,-0.003935342654585838,0.0020854624453932047
85977.123,-0.61,-0.44,0.24,0.4899999797344208,0,0,0.9999755024909973,-0.0053911167196929455,-0.00393641134724021,0.002090858994051814
86017.21,-0.61,-0.45,0.24,0.4899999797344208,0,0,0.9999755024909973,-0.005386027041822672,-0.003938796930015087,0.002086105290800333
86057.194,-0.61,-0.44,0.24,0.38999998569488525,0,0,0.9999755620956421,-0.0053818682208657265,-0.003935008309781551,0.002081732964143157
86097.355,-0.61,-0.45,0.24,0.38999998569488525,0,0,0.9999755024909973,-0.005384013522416353,-0.003938477486371994,0.002085460349917412
86137.264,-0.61,-0.44,0.24,0.3700000047683716,0,0,0.9999755024909973,-0.005386745557188988,-0.00393542367964983,0.0020916671492159367
86177.14,-0.61,-0.44,0.24,0.3700000047683716,0,0,0.9999755024909973,-0.005383679177612066,-0.003935637883841991,0.0020992732606828213
86217.485,-0.61,-0.44,0.24,0.3700000047683716,0,0,0.9999756217002869,-0.005379221867769957,-0.003930207807570696,0.0021020006388425827
86257.18,-0.61,-0.44,0.24,0.5099999904632568,0,0,0.9999755024909973,-0.005383038427680731,-0.003931090235710144,0.0021050558425486088
86297.339,-0.61,-0.44,0.24,0.5099999904632568,0,0,0.9999755620956421,-0.005381233524531126,-0.00393281364813447,0.002107545267790556
86337.199,-0.61,-0.45,0.24,0.14000000059604645,0,0,0.9999755620956421,-0.005374514497816563,-0.0039389245212078094,0.0021078947465866804
86377.169,-0.61,-0.44,0.24,0.14000000059604645,0,0,0.9999755620956421,-0.005374072585254908,-0.003933743108063936,0.0021119744051247835
86417.158,-0.61,-0.44,0.24,0.14000000059604645,0,0,0.9999755024909973,-0.005375503096729517,-0.0039365882985293865,0.0021123888436704874
86457.127,-0.61,-0.44,0.24,0.10999999940395355,0,0,0.9999755620956421,-0.005375123117119074,-0.003935885149985552,0.002110418863594532
86497.396,-0.61,-0.44,0.24,0.10999999940395355,0,0,0.9999756217002869,-0.005372224375605583,-0.003933211322873831,0.0021124975755810738
86537.233,-0.61,-0.44,0.24,0.6599999666213989,0,0,0.9999755620956421,-0.00537438690662384,-0.003932550083845854,0.002111485693603754
86577.407,-0.61,-0.44,0.24,0.6599999666213989,0,0,0.9999756217002869,-0.005373361986130476,-0.003932667430490255,0.002114388858899474
86617.034,-0.61,-0.44,0.24,0.6599999666213989,0,0,0.9999755620956421,-0.005370546132326126,-0.003936218563467264,0.0021105941850692034
86657.137,-0.61,-0.44,0.24,0.3499999940395355,0,0,0.9999755620956421,-0.005374137777835131,-0.00393621576949954,0.0021113029215484858
86697.369,-0.61,-0.44,0.24,0.3499999940395355,0,0,0.9999755024909973,-0.005372759886085987,-0.00393750099465251,0.0021123583428561687
86737.289,-0.61,-0.44,0.24,0.22999998927116394,0,0,0.9999755024909973,-0.005379930604249239,-0.003936435095965862,0.0021132046822458506
86777.478,-0.61,-0.45,0.24,0.22999998927116394,0,0,0.9999755024909973,-0.005377961788326502,-0.003938764799386263,0.002119770273566246
86816.954,-0.61,-0.45,0.24,0.22999998927116394,0,0,0.9999755024909973,-0.005378281231969595,-0.00394321046769619,0.0021193958818912506
86857.161,-0.61,-0.45,0.24,0.4099999964237213,0,0,0.9999755024909973,-0.005378704518079758,-0.003941225353628397,0.0021215227898210287
86897.403,-0.61,-0.45,0.24,0.4099999964237213,0,0,0.9999755024909973,-0.005382595583796501,-0.003941189497709274,0.0021210398990660906
86937.179,-0.61,-0.45,0.24,0.5399999618530273,0,0,0.9999755024909973,-0.0053795380517840385,-0.0039403862319886684,0.002118118805810809
86977.303,-0.61,-0.45,0.24,0.5399999618530273,0,0,0.9999755024909973,-0.005378402303904295,-0.003949707839637995,0.002115370938554406
87016.945,-0.61,-0.45,0.24,0.5399999618530273,0,0,0.9999754428863525,-0.005380245391279459,-0.0039571900852024555,0.002118163276463747
87057.208,-0.61,-0.45,0.24,0.5600000023841858,0,0,0.9999755024909973,-0.005381558556109667,-0.003953501582145691,0.0021240892820060253
87097.539,-0.61,-0.45,0.24,0.5600000023841858,0,0,0.9999754428863525,-0.005377981346100569,-0.003956754691898823,0.002125530270859599
87137.274,-0.61,-0.45,0.24,0.17000000178813934,0,0,0.9999754428863525,-0.0053715831600129604,-0.003959790803492069,0.002121022902429104
87177.344,-0.61,-0.45,0.24,0.17000000178813934,0,0,0.9999755024909973,-0.005372947547584772,-0.003958501853048801,0.0021184023935347795
87217.267,-0.61,-0.45,0.24,0.17000000178813934,0,0,0.9999754428863525,-0.0053762164898216724,-0.003958133980631828,0.0021209355909377337
87257.201,-0.61,-0.45,0.24,0.5299999713897705,0,0,0.9999754428863525,-0.0053784605115652084,-0.003962892573326826,0.002119131153449416
87297.325,-0.61,-0.45,0.24,0.5299999713897705,0,0,0.9999753832817078,-0.005378784611821175,-0.003970330581068993,0.0021186291705816984
87337.348,-0.61,-0.45,0.24,0.3499999940395355,0,0,0.9999753832817078,-0.0053743342868983746,-0.003975209780037403,0.0021253086160868406
87377.511,-0.61,-0.45,0.24,0.3499999940395355,0,0,0.9999753832817078,-0.005371512845158577,-0.0039776102639734745,0.0021245242096483707
87416.851,-0.61,-0.45,0.24,0.3499999940395355,0,0,0.9999754428863525,-0.005363603122532368,-0.003979070112109184,0.0021236699540168047
87457.239,-0.61,-0.45,0.24,0.5399999618530273,0,0,0.9999753832817078,-0.005368905141949654,-0.0039858128875494,0.0021260997746139765
87497.338,-0.61,-0.45,0.24,0.5399999618530273,0,0,0.9999753832817078,-0.0053709642961621284,-0.003988724667578936,0.002128631342202425
87537.219,-0.61,-0.45,0.24,0.23999999463558197,0,0,0.9999753832817078,-0.005371647421270609,-0.0039868601597845554,0.0021272064186632633
87577.458,-0.61,-0.45,0.24,0.23999999463558197,0,0,0.999975323677063,-0.005370469763875008,-0.003992479294538498,0.0021264320239424706
87616.978,-0.61,-0.45,0.24,0.23999999463558197,0,0,0.999975323677063,-0.005372391548007727,-0.003985762596130371,0.002133037196472287
87657.238,-0.61,-0.45,0.24,0.38999998569488525,0,0,0.999975323677063,-0.0053697978146374226,-0.003991757985204458,0.002130793407559395
87697.374,-0.61,-0.45,0.24,0.38999998569488525,0,0,0.999975323677063,-0.005371048115193844,-0.003986720461398363,0.0021343608386814594
87737.265,-0.61,-0.45,0.24,0.3100000023841858,0,0,0.999975323677063,-0.005372107960283756,-0.0039878408424556255,0.0021367515437304974
87777.462,-0.61,-0.45,0.24,0.3100000023841858,0,0,0.999975323677063,-0.005375951994210482,-0.003989890683442354,0.002135883318260312
87816.984,-0.61,-0.45,0.24,0.3100000023841858,0,0,0.9999752640724182,-0.005378984846174717,-0.0039868103340268135,0.002139073796570301
87857.184,-0.61,-0.45,0.24,0.4899999797344208,0,0,0.9999752640724182,-0.005380020011216402,-0.0039888652972877026,0.0021421348210424185
87897.293,-0.61,-0.45,0.24,0.4899999797344208,0,0,0.9999752640724182,-0.0053751529194414616,-0.0039870901964604855,0.0021465576719492674
87937.225,-0.61,-0.45,0.24,0.4099999964237213,0,0,0.9999752640724182,-0.005375921260565519,-0.003985901363193989,0.0021465725731104612
87977.583,-0.61,-0.45,0.24,0.4099999964237213,0,0,0.9999752640724182,-0.0053760283626616,-0.0039873383939266205,0.002146453596651554
88016.973,-0.61,-0.45,0.25,0.4099999964237213,0,0,0.9999752640724182,-0.005376501940190792,-0.0039865379221737385,0.002150012878701091
88057.137,-0.61,-0.45,0.25,0.3999999761581421,0,0,0.9999752044677734,-0.005382792092859745,-0.003989435266703367,0.0021485036704689264
88097.388,-0.61,-0.45,0.25,0.3999999761581421,0,0,0.9999752044677734,-0.005380761343985796,-0.003992278594523668,0.0021475825924426317
88137.257,-0.61,-0.45,0.25,0.3199999928474426,0,0,0.9999752044677734,-0.005383021663874388,-0.003988981246948242,0.0021474806126207113
88177.629,-0.61,-0.45,0.25,0.3199999928474426,0,0,0.9999752640724182,-0.005374238360673189,-0.003990257158875465,0.002147422404959798
88217.155,-0.61,-0.45,0.24,0.3199999928474426,0,0,0.9999752640724182,-0.005377969238907099,-0.003991302102804184,0.0021431350614875555
88257.139,-0.61,-0.45,0.24,0.4399999976158142,0,0,0.9999752640724182,-0.005373616702854633,-0.003997051157057285,0.0021461418364197016
88297.394,-0.61,-0.45,0.25,0.4399999976158142,0,0,0.9999752640724182,-0.005371697712689638,-0.003992085810750723,0.0021481052972376347
88337.266,-0.61,-0.45,0.24,0.4899999797344208,0,0,0.9999752640724182,-0.00536416657269001,-0.003992876969277859,0.002146997721865773
88377.323,-0.61,-0.45,0.25,0.4899999797344208,0,0,0.999975323677063,-0.0053658015094697475,-0.003988852258771658,0.0021484827157109976
88416.966,-0.61,-0.45,0.25,0.4899999797344208,0,0,0.999975323677063,-0.005365998484194279,-0.003981786780059338,0.0021509905345737934
88457.167,-0.61,-0.45,0.25,0.5399999618530273,0,0,0.9999753832817078,-0.005368602462112904,-0.003978413995355368,0.0021474803797900677
88497.345,-0.61,-0.45,0.25,0.5399999618530273,0,0,0.999975323677063,-0.005368045065551996,-0.003976798616349697,0.0021502499002963305
88537.314,-0.61,-0.45,0.25,0.7099999785423279,0,0,0.999975323677063,-0.0053660194389522076,-0.003982949536293745,0.002150914166122675
88577.436,-0.61,-0.45,0.25,0.7099999785423279,0,0,0.9999752640724182,-0.005365543067455292,-0.003984618932008743,0.0021573526319116354
88616.969,-0.61,-0.45,0.25,0.7099999785423279,0,0,0.999975323677063,-0.005363122560083866,-0.003988009877502918,0.002158929593861103
88657.164,-0.61,-0.45,0.25,0.5399999618530273,0,0,0.999975323677063,-0.005361654330044985,-0.003989448770880699,0.0021557959262281656
88697.414,-0.61,-0.45,0.25,0.5399999618530273,0,0,0.999975323677063,-0.0053610242903232574,-0.003991245292127132,0.0021489770151674747
88737.269,-0.61,-0.45,0.24,0.6200000047683716,0,0,0.999975323677063,-0.005366044584661722,-0.003990329802036285,0.002146925777196884
88777.388,-0.61,-0.45,0.24,0.6200000047683716,0,0,0.9999752640724182,-0.005362898577004671,-0.003992809914052486,0.002146779792383313
88816.904,-0.61,-0.45,0.25,0.6200000047683716,0,0,0.9999752640724182,-0.005364891607314348,-0.003993059508502483,0.002148106461390853
88857.146,-0.61,-0.45,0.25,0.5099999904632568,0,0,0.999975323677063,-0.005365295335650444,-0.00399016123265028,0.0021489032078534365
88897.409,-0.61,-0.45,0.25,0.5099999904632568,0,0,0.999975323677063,-0.005370754282921553,-0.0039916629903018475,0.002154492773115635
88937.298,-0.61,-0.45,0.25,0.4399999976158142,0,0,0.999975323677063,-0.005363961216062307,-0.003988299984484911,0.0021537933498620987
88977.408,-0.61,-0.45,0.25,0.4399999976158142,0,0,0.999975323677063,-0.005364126525819302,-0.00399007648229599,0.0021521085873246193
89016.972,-0.61,-0.45,0.25,0.4399999976158142,0,0,0.999975323677063,-0.005368381273001432,-0.00398803548887372,0.002150834770873189
89057.193,-0.61,-0.45,0.24,0.6599999666213989,0,0,0.9999752640724182,-0.005374089814722538,-0.003987067379057407,0.002146828919649124
89097.334,-0.61,-0.45,0.25,0.6599999666213989,0,0,0.9999752640724182,-0.005368723068386316,-0.0039834133349359035,0.0021516564302146435
89137.288,-0.61,-0.45,0.25,0.949999988079071,0,0,0.999975323677063,-0.0053720176219940186,-0.003980171866714954,0.002154724672436714
89177.518,-0.61,-0.45,0.25,0.949999988079071,0,0,0.999975323677063,-0.00537350308150053,-0.003980605863034725,0.0021550103556364775
89217.348,-0.61,-0.45,0.25,0.949999988079071,0,0,0.9999752640724182,-0.005369984544813633,-0.003985101357102394,0.002155652968212962
89257.23,-0.61,-0.45,0.25,0.5999999642372131,0,0,0.9999752640724182,-0.005371205974370241,-0.0039914445951581,0.0021561940666288137
89297.297,-0.61,-0.45,0.25,0.5999999642372131,0,0,0.9999752044677734,-0.005376110784709454,-0.0039974176324903965,0.002160588512197137
89337.244,-0.61,-0.45,0.25,0.6299999952316284,0,0,0.9999752044677734,-0.005379981826990843,-0.003998786676675081,0.002160768723115325
89377.365,-0.61,-0.45,0.25,0.6299999952316284,0,0,0.9999752640724182,-0.005379557143896818,-0.003991349600255489,0.0021585356444120407
89416.991,-0.61,-0.45,0.25,0.6299999952316284,0,0,0.9999752044677734,-0.0053786844946444035,-0.003992590121924877,0.0021582948975265026
89457.152,-0.61,-0.45,0.25,0.6599999666213989,0,0,0.9999752044677734,-0.005380700808018446,-0.003995136823505163,0.002160036936402321
89497.278,-0.61,-0.45,0.25,0.6599999666213989,0,0,0.9999752044677734,-0.0053804717026650906,-0.003993756137788296,0.0021596401929855347
89537.227,-0.61,-0.45,0.25,0.6100000143051147,0,0,0.9999752044677734,-0.005379360169172287,-0.003996032755821943,0.0021593861747533083
89577.367,-0.61,-0.45,0.25,0.6100000143051147,0,0,0.9999752044677734,-0.005375113803893328,-0.003994232043623924,0.002158180810511112
89617.036,-0.61,-0.45,0.25,0.6100000143051147,0,0,0.9999752640724182,-0.005380951799452305,-0.003990609664469957,0.0021608679089695215
89657.167,-0.61,-0.45,0.25,0.6800000071525574,0,0,0.9999750852584839,-0.005384591408073902,-0.003992380574345589,0.0021571193356066942
89697.351,-0.61,-0.45,0.25,0.6800000071525574,0,0,0.9999750852584839,-0.0053830635733902454,-0.003994513303041458,0.0021606578957289457
89737.224,-0.61,-0.45,0.25,0.6800000071525574,0,0,0.9999751448631287,-0.005385298281908035,-0.003989449702203274,0.002164758276194334
89777.536,-0.61,-0.45,0.25,0.6800000071525574,0,0,0.9999751448631287,-0.005385821685194969,-0.003987272270023823,0.002168585080653429
89817.038,-0.61,-0.45,0.25,0.6800000071525574,0,0,0.9999752044677734,-0.005380960181355476,-0.003987448289990425,0.0021717133931815624
89857.288,-0.61,-0.45,0.25,0.8199999928474426,0,0,0.9999752044677734,-0.005380840506404638,-0.003987505566328764,0.0021733040921390057
89897.383,-0.61,-0.45,0.25,0.8199999928474426,0,0,0.9999751448631287,-0.005382782779633999,-0.00399059196934104,0.0021779504604637623
89937.283,-0.61,-0.45,0.25,0.7099999785423279,0,0,0.9999750852584839,-0.005384119693189859,-0.00399509584531188,0.002182172844186425
89977.366,-0.61,-0.45,0.25,0.7099999785423279,0,0,0.9999750852584839,-0.005384157877415419,-0.003994753118604422,0.002186390571296215
90016.941,-0.61,-0.45,0.25,0.7099999785423279,0,0,0.9999750852584839,-0.005384988617151976,-0.003990075550973415,0.00219113496132195
90057.211,-0.61,-0.45,0.25,0.9599999785423279,0,0,0.9999750852584839,-0.005380811169743538,-0.003995108883827925,0.002195323584601283
90097.456,-0.61,-0.45,0.25,0.9599999785423279,0,0,0.9999750852584839,-0.005382038187235594,-0.0040023913607001305,0.002196802059188485
90137.261,-0.61,-0.45,0.25,0.8299999833106995,0,0,0.9999750852584839,-0.005379051901400089,-0.00400470569729805,0.002195479115471244
90177.312,-0.61,-0.45,0.25,0.8299999833106995,0,0,0.9999751448631287,-0.0053765615448355675,-0.004000205080956221,0.0021978295408189297
90217.222,-0.61,-0.45,0.25,0.8299999833106995,0,0,0.9999751448631287,-0.005371971987187862,-0.003993860445916653,0.0022005545906722546
90257.171,-0.61,-0.45,0.25,0.8399999737739563,0,0,0.9999751448631287,-0.005371101200580597,-0.003996200859546661,0.0021962278988212347
90297.396,-0.61,-0.45,0.25,0.8399999737739563,0,0,0.9999751448631287,-0.0053728362545371056,-0.003989215474575758,0.002196772489696741
90337.287,-0.61,-0.45,0.25,0.7699999809265137,0,0,0.9999752044677734,-0.005369826219975948,-0.003991625737398863,0.0021913787350058556
90377.452,-0.61,-0.45,0.25,0.7699999809265137,0,0,0.9999751448631287,-0.005370873026549816,-0.00399411516264081,0.002192443236708641
90416.895,-0.61,-0.45,0.25,0.7699999809265137,0,0,0.9999751448631287,-0.005373618099838495,-0.003996090032160282,0.002193665597587824
90457.175,-0.61,-0.45,0.25,0.9199999570846558,0,0,0.9999751448631287,-0.005367651116102934,-0.00399397499859333,0.0021996821742504835
90497.328,-0.61,-0.45,0.25,0.9199999570846558,0,0,0.9999752044677734,-0.005365953780710697,-0.003991213161498308,0.002199152484536171
90537.321,-0.61,-0.45,0.25,1.0499999523162842,0,0,0.9999752044677734,-0.005367864854633808,-0.003989299759268761,0.0022032535634934902
90577.437,-0.61,-0.45,0.25,1.0499999523162842,0,0,0.9999751448631287,-0.00536672119051218,-0.00399400619789958,0.0022037900052964687
90616.936,-0.61,-0.45,0.25,1.0499999523162842,0,0,0.9999751448631287,-0.005362553987652063,-0.003998429048806429,0.0022065211087465286
90657.185,-0.61,-0.45,0.25,0.9799999594688416,0,0,0.9999752044677734,-0.005361722782254219,-0.003995405975729227,0.0022014148999005556
90697.609,-0.61,-0.45,0.25,0.9799999594688416,0,0,0.9999751448631287,-0.005360588897019625,-0.0039923605509102345,0.0022027301602065563
90737.235,-0.61,-0.45,0.25,1.0399999618530273,0,0,0.9999751448631287,-0.005361360497772694,-0.003996627405285835,0.002204724820330739
90777.363,-0.61,-0.45,0.25,1.0399999618530273,0,0,0.9999751448631287,-0.005361880175769329,-0.003993483725935221,0.0022101220674812794
90816.937,-0.61,-0.45,0.25,1.0399999618530273,0,0,0.9999751448631287,-0.0053604659624397755,-0.003998224623501301,0.0022092084400355816
90857.132,-0.61,-0.45,0.25,0.949999988079071,0,0,0.9999750852584839,-0.005365774501115084,-0.004002981353551149,0.0022066307719796896
90897.305,-0.61,-0.45,0.25,0.949999988079071,0,0,0.9999750852584839,-0.005362513475120068,-0.004002986941486597,0.002207928104326129
90937.222,-0.61,-0.45,0.25,0.85999995470047,0,0,0.9999751448631287,-0.005358028691262007,-0.004005828406661749,0.002206340664997697
90977.537,-0.61,-0.45,0.25,0.85999995470047,0,0,0.9999751448631287,-0.005357807502150536,-0.004006860312074423,0.0022081881761550903
91016.926,-0.61,-0.45,0.25,0.85999995470047,0,0,0.9999750852584839,-0.0053565651178359985,-0.004012756980955601,0.00220517348498106
91057.313,-0.61,-0.45,0.25,0.9399999976158142,0,0,0.9999750852584839,-0.005355037283152342,-0.0040139188058674335,0.0022060910705477
91097.314,-0.61,-0.45,0.25,0.9399999976158142,0,0,0.9999751448631287,-0.005351792089641094,-0.004022038076072931,0.0022080407943576574
91137.236,-0.61,-0.46,0.25,0.8100000023841858,0,0,0.9999750852584839,-0.005356347654014826,-0.004026820417493582,0.002207573503255844
91177.373,-0.61,-0.45,0.25,0.8100000023841858,0,0,0.9999750852584839,-0.005354322958737612,-0.004022571258246899,0.00221073254942894
91217.32,-0.61,-0.45,0.25,0.8100000023841858,0,0,0.9999750852584839,-0.00535560492426157,-0.004019501153379679,0.0022125940304249525
91257.233,-0.61,-0.45,0.25,0.7599999904632568,0,0,0.9999750852584839,-0.005356787238270044,-0.004016567021608353,0.0022107765544205904
91297.34,-0.61,-0.45,0.25,0.7599999904632568,0,0,0.9999750852584839,-0.005355435889214277,-0.004016249906271696,0.002212619176134467
91337.209,-0.61,-0.45,0.25,0.85999995470047,0,0,0.9999750852584839,-0.005357521120458841,-0.004020608961582184,0.0022142191883176565
91377.33,-0.61,-0.45,0.25,0.85999995470047,0,0,0.9999750256538391,-0.005354258697479963,-0.004023091401904821,0.0022177542559802532
91417.076,-0.61,-0.46,0.25,0.85999995470047,0,0,0.9999751448631287,-0.005353391636162996,-0.004029798321425915,0.0022144964896142483
91457.184,-0.61,-0.46,0.25,0.5299999713897705,0,0,0.9999750256538391,-0.005353816319257021,-0.004035573918372393,0.0022162278182804585
91497.36,-0.61,-0.46,0.25,0.5299999713897705,0,0,0.9999750852584839,-0.005349929444491863,-0.004036088474094868,0.0022164706606417894
91537.342,-0.61,-0.46,0.25,0.8499999642372131,0,0,0.9999750852584839,-0.00534350099042058,-0.004034273326396942,0.0022143111564219
91577.449,-0.61,-0.46,0.25,0.8499999642372131,0,0,0.9999752044677734,-0.00534356152638793,-0.004030540119856596,0.002210113452747464
91616.981,-0.61,-0.46,0.25,0.8499999642372131,0,0,0.9999751448631287,-0.0053463405929505825,-0.004028777591884136,0.0022101441863924265
91657.153,-0.61,-0.46,0.25,1.0699999332427979,0,0,0.9999750852584839,-0.005346905440092087,-0.004033301956951618,0.0022217249497771263
91697.353,-0.61,-0.46,0.25,1.0699999332427979,0,0,0.9999750852584839,-0.005342795513570309,-0.004035993944853544,0.0022247377783060074
91737.324,-0.61,-0.46,0.25,0.7899999618530273,0,0,0.9999750852584839,-0.005342095624655485,-0.004038642160594463,0.0022334198001772165
91777.443,-0.61,-0.46,0.25,0.7899999618530273,0,0,0.9999750852584839,-0.0053431373089551926,-0.0040397047996521,0.0022339606657624245
91816.909,-0.61,-0.46,0.26,0.7899999618530273,0,0,0.9999750852584839,-0.005340328440070152,-0.004037486854940653,0.0022386815398931503
91857.172,-0.61,-0.46,0.26,0.9199999570846558,0,0,0.9999750256538391,-0.005338337738066912,-0.00403461791574955,0.002240124624222517
91897.367,-0.61,-0.46,0.26,0.9199999570846558,0,0,0.9999750852584839,-0.005338780116289854,-0.004038972780108452,0.002246982418000698
91937.34,-0.61,-0.46,0.26,0.6499999761581421,0,0,0.9999750256538391,-0.005340426694601774,-0.004049499053508043,0.0022515023592859507
91977.377,-0.61,-0.46,0.26,0.6499999761581421,0,0,0.9999749660491943,-0.005341948941349983,-0.00404221098870039,0.0022516490425914526
92016.905,-0.61,-0.46,0.26,0.6499999761581421,0,0,0.9999750256538391,-0.005341322626918554,-0.004040171392261982,0.0022434948477894068
92057.212,-0.61,-0.46,0.26,0.8199999928474426,0,0,0.9999750852584839,-0.005337830167263746,-0.004035233985632658,0.0022457034792751074
92097.307,-0.61,-0.46,0.26,0.8199999928474426,0,0,0.9999750256538391,-0.00533351581543684,-0.004033443983644247,0.002251193393021822
92137.335,-0.61,-0.46,0.26,0.7599999904632568,0,0,0.9999750852584839,-0.005337095819413662,-0.004032237455248833,0.0022457160521298647
92177.49,-0.61,-0.46,0.26,0.7599999904632568,0,0,0.9999750256538391,-0.005338548682630062,-0.00403341930359602,0.0022461479529738426
92217.323,-0.61,-0.46,0.26,0.7599999904632568,0,0,0.9999750256538391,-0.005340381525456905,-0.0040323627181351185,0.002250377321615815
