time_boot_ms,C,Q1,Q2,Q3,Q4
6135.644,1,1,0,0,0
6176.295,1,1,0,0,0
6216.229,1,1,0,0,0
6256.246,1,1,0,0,0
6296.245,1,1,0,0,0
6336.284,1,1,0,0,0
6376.296,1,1,0,0,0
6416.281,1,1,0,0,0
6456.218,1,1,0,0,0
6496.251,1,1,0,0,0
6536.253,1,1,0,0,0
6576.293,1,1,0,0,0
6616.278,1,1,0,0,0
6656.252,1,1,0,0,0
6696.221,1,1,0,0,0
6736.28,1,1,0,0,0
6776.274,1,1,0,0,0
6816.296,1,1,0,0,0
6856.29,1,1,0,0,0
6896.253,1,1,0,0,0
6936.26,1,1,0,0,0
6976.241,1,1,0,0,0
7016.307,1,1,0,0,0
7056.295,1,1,0,0,0
7096.273,1,1,0,0,0
7136.223,1,1,0,0,0
7176.257,1,1,0,0,0
7216.259,1,1,0,0,0
7256.272,1,1,0,0,0
7296.292,1,1,0,0,0
7336.27,1,1,0,0,0
7376.219,1,1,0,0,0
7416.26,1,1,0,0,0
7456.218,1,1,0,0,0
7496.274,1,1,0,0,0
7536.317,1,1,0,0,0
7576.282,1,1,0,0,0
7616.226,1,1,0,0,0
7656.253,1,1,0,0,0
7696.28,1,1,0,0,0
7736.272,1,1,0,0,0
7776.294,1,1,0,0,0
7816.235,1,1,0,0,0
7856.243,1,1,0,0,0
7896.248,1,1,0,0,0
7936.279,1,1,0,0,0
7976.291,1,1,0,0,0
8016.279,1,1,0,0,0
8056.211,1,1,0,0,0
8096.246,1,1,0,0,0
8136.251,1,1,0,0,0
8176.276,1,1,0,0,0
8216.254,1,1,0,0,0
8256.271,1,1,0,0,0
8296.22,1,1,0,0,0
8336.275,1,1,0,0,0
8376.278,1,1,0,0,0
8416.268,1,1,0,0,0
8456.287,1,1,0,0,0
8496.257,1,1,0,0,0
8536.231,1,1,0,0,0
8576.256,1,1,0,0,0
8616.274,1,1,0,0,0
8656.266,1,1,0,0,0
8696.303,1,1,0,0,0
8736.227,1,1,0,0,0
8776.247,1,1,0,0,0
8816.278,1,1,0,0,0
8856.27,1,1,0,0,0
8896.315,1,1,0,0,0
8936.295,1,1,0,0,0
8976.221,1,1,0,0,0
9016.254,1,1,0,0,0
9056.239,1,1,0,0,0
9096.292,1,1,0,0,0
9136.285,1,1,0,0,0
9176.267,1,1,0,0,0
9216.216,1,1,0,0,0
9256.244,1,1,0,0,0
9296.28,1,1,0,0,0
9336.283,1,1,0,0,0
9376.302,1,1,0,0,0
9416.262,1,1,0,0,0
9456.259,1,1,0,0,0
9496.257,1,1,0,0,0
9536.28,1,1,0,0,0
9576.299,1,1,0,0,0
9616.283,1,1,0,0,0
9656.228,1,1,0,0,0
9696.252,1,1,0,0,0
9736.251,1,1,0,0,0
9776.275,1,1,0,0,0
9816.314,1,1,0,0,0
9856.269,1,1,0,0,0
9896.221,1,1,0,0,0
9936.251,1,1,0,0,0
9976.24,1,1,0,0,0
10016.298,1,1,0,0,0
10056.279,1,1,0,0,0
10096.245,1,1,0,0,0
10136.226,1,1,0,0,0
10176.244,1,1,0,0,0
10216.274,1,1,0,0,0
10256.274,1,1,0,0,0
10296.314,1,1,0,0,0
10336.254,1,1,0,0,0
10376.242,1,1,0,0,0
10416.247,1,1,0,0,0
10456.281,1,1,0,0,0
10496.27,1,1,0,0,0
10536.278,1,1,0,0,0
10576.221,1,1,0,0,0
10616.251,1,1,0,0,0
10656.289,1,1,0,0,0
10696.283,1,1,0,0,0
10736.271,1,1,0,0,0
10776.271,1,1,0,0,0
10816.225,1,1,0,0,0
10856.265,1,1,0,0,0
10896.224,1,1,0,0,0
10936.302,1,1,0,0,0
10976.282,1,1,0,0,0
11016.266,1,1,0,0,0
11056.217,1,1,0,0,0
11096.249,1,1,0,0,0
11136.28,1,1,0,0,0
11176.296,1,1,0,0,0
11216.289,1,1,0,0,0
11256.242,1,1,0,0,0
11296.256,1,1,0,0,0
11336.244,1,1,0,0,0
11376.325,1,1,0,0,0
11416.295,1,1,0,0,0
11456.281,1,1,0,0,0
11496.232,1,1,0,0,0
11536.254,1,1,0,0,0
11576.25,1,1,0,0,0
11616.277,1,1,0,0,0
11656.309,1,1,0,0,0
11696.256,1,1,0,0,0
11736.226,1,1,0,0,0
11776.254,1,1,0,0,0
11816.286,1,1,0,0,0
11856.297,1,1,0,0,0
11896.306,1,1,0,0,0
11936.283,1,1,0,0,0
11976.233,1,1,0,0,0
12016.252,1,1,0,0,0
12056.283,1,1,0,0,0
12096.3,1,1,0,0,0
12136.29,1,1,0,0,0
12176.234,1,1,0,0,0
12216.26,1,1,0,0,0
12256.245,1,1,0,0,0
12296.275,1,1,0,0,0
12336.296,1,1,0,0,0
12376.28,1,1,0,0,0
12416.23,1,1,0,0,0
12456.247,1,1,0,0,0
12496.252,1,1,0,0,0
12536.286,1,1,0,0,0
12576.292,1,1,0,0,0
12616.256,1,1,0,0,0
12656.223,1,1,0,0,0
12696.258,1,1,0,0,0
12736.263,1,1,0,0,0
12776.284,1,1,0,0,0
12816.282,1,1,0,0,0
12856.258,1,1,0,0,0
12896.213,1,1,0,0,0
12936.251,1,1,0,0,0
12976.281,1,1,0,0,0
13016.271,1,1,0,0,0
13056.282,1,1,0,0,0
13096.232,1,1,0,0,0
13136.25,1,1,0,0,0
13176.25,1,1,0,0,0
13216.288,1,1,0,0,0
13256.273,1,1,0,0,0
13296.282,1,1,0,0,0
13336.224,1,1,0,0,0
13376.242,1,1,0,0,0
13416.237,1,1,0,0,0
13456.291,1,1,0,0,0
13496.285,1,1,0,0,0
13536.263,1,1,0,0,0
13576.214,1,1,0,0,0
13616.252,1,1,0,0,0
13656.284,1,1,0,0,0
13696.252,1,1,0,0,0
13736.341,1,1,0,0,0
13776.263,1,1,0,0,0
13816.246,1,1,0,0,0
13856.254,1,1,0,0,0
13896.28,1,1,0,0,0
13936.3,1,1,0,0,0
13976.278,1,1,0,0,0
14016.254,1,1,0,0,0
14056.244,1,1,0,0,0
14096.252,1,1,0,0,0
14136.293,1,1,0,0,0
14176.308,1,1,0,0,0
14216.271,1,1,0,0,0
14256.22,1,1,0,0,0
14296.25,1,1,0,0,0
14336.234,1,1,0,0,0
14376.284,1,1,0,0,0
14416.273,1,1,0,0,0
14456.277,1,1,0,0,0
14496.224,1,1,0,0,0
14536.25,1,1,0,0,0
14576.289,1,1,0,0,0
14616.302,1,1,0,0,0
14656.303,1,1,0,0,0
14696.248,1,1,0,0,0
14736.247,1,1,0,0,0
14776.247,1,1,0,0,0
14816.295,1,1,0,0,0
14856.289,1,1,0,0,0
14896.305,1,1,0,0,0
14936.214,1,1,0,0,0
14976.248,1,1,0,0,0
15016.243,1,1,0,0,0
15056.277,1,1,0,0,0
15096.266,1,1,0,0,0
15136.271,1,1,0,0,0
15176.236,1,1,0,0,0
15216.241,1,1,0,0,0
15256.22,1,1,0,0,0
15296.28,1,1,0,0,0
15336.277,1,1,0,0,0
15376.259,1,1,0,0,0
15416.247,1,1,0,0,0
15456.259,1,1,0,0,0
15496.275,1,1,0,0,0
15536.292,1,1,0,0,0
15576.29,1,1,0,0,0
15616.234,1,1,0,0,0
15656.245,1,1,0,0,0
15696.267,1,1,0,0,0
15736.275,1,1,0,0,0
15776.296,1,1,0,0,0
15816.304,1,1,0,0,0
15856.232,1,1,0,0,0
15896.253,1,1,0,0,0
15936.253,1,1,0,0,0
15976.275,1,1,0,0,0
16016.298,1,1,0,0,0
16056.288,1,1,0,0,0
16096.216,1,1,0,0,0
16136.253,1,1,0,0,0
16176.293,1,1,0,0,0
16216.265,1,1,0,0,0
16256.299,1,1,0,0,0
16296.279,1,1,0,0,0
16336.213,1,1,0,0,0
16376.253,1,1,0,0,0
16416.282,1,1,0,0,0
16456.293,1,1,0,0,0
16496.295,1,1,0,0,0
16536.271,1,1,0,0,0
16576.252,1,1,0,0,0
16616.24,1,1,0,0,0
16656.279,1,1,0,0,0
16696.3,1,1,0,0,0
16736.29,1,1,0,0,0
16776.217,1,1,0,0,0
16816.252,1,1,0,0,0
16856.239,1,1,0,0,0
16896.281,1,1,0,0,0
16936.301,1,1,0,0,0
16976.254,1,1,0,0,0
17016.225,1,1,0,0,0
17056.269,1,1,0,0,0
17096.278,1,1,0,0,0
17136.269,1,1,0,0,0
17176.314,1,1,0,0,0
17216.288,1,1,0,0,0
17256.228,1,1,0,0,0
17296.255,1,1,0,0,0
17336.268,1,1,0,0,0
17376.292,1,1,0,0,0
17416.295,1,1,0,0,0
17456.245,1,1,0,0,0
17496.247,1,1,0,0,0
17536.249,1,1,0,0,0
17576.299,1,1,0,0,0
17616.274,1,1,0,0,0
17656.285,1,1,0,0,0
17696.217,1,1,0,0,0
17736.251,1,1,0,0,0
17776.291,1,1,0,0,0
17816.284,1,1,0,0,0
17856.26,1,1,0,0,0
17896.271,1,1,0,0,0
17936.226,1,1,0,0,0
17976.252,1,1,0,0,0
18016.283,1,1,0,0,0
18056.296,1,1,0,0,0
18096.295,1,1,0,0,0
18136.249,1,1,0,0,0
18176.238,1,1,0,0,0
18216.253,1,1,0,0,0
18256.275,1,1,0,0,0
18296.311,1,1,0,0,0
18336.297,1,1,0,0,0
18376.223,1,1,0,0,0
18416.248,1,1,0,0,0
18456.249,1,1,0,0,0
18496.28,1,1,0,0,0
18536.299,1,1,0,0,0
18576.304,1,1,0,0,0
18616.213,1,1,0,0,0
18656.254,1,1,0,0,0
18696.308,1,1,0,0,0
18736.272,1,1,0,0,0
18776.294,1,1,0,0,0
18816.279,1,1,0,0,0
18856.218,1,1,0,0,0
18896.261,1,1,0,0,0
18936.282,1,1,0,0,0
18976.293,1,1,0,0,0
19016.302,1,1,0,0,0
19056.259,1,1,0,0,0
19096.242,1,1,0,0,0
19136.244,1,1,0,0,0
19176.28,1,1,0,0,0
19216.287,1,1,0,0,0
19256.27,1,1,0,0,0
19296.243,1,1,0,0,0
19336.251,1,1,0,0,0
19376.251,1,1,0,0,0
19416.277,1,1,0,0,0
19456.278,1,1,0,0,0
19496.263,1,1,0,0,0
19536.223,1,1,0,0,0
19576.246,1,1,0,0,0
19616.286,1,1,0,0,0
19656.266,1,1,0,0,0
19696.327,1,1,0,0,0
19736.25,1,1,0,0,0
19776.234,1,1,0,0,0
19816.25,1,1,0,0,0
19856.277,1,1,0,0,0
19896.272,1,1,0,0,0
19936.289,1,1,0,0,0
19976.214,1,1,0,0,0
20016.25,1,1,0,0,0
20056.245,1,1,0,0,0
20096.277,1,1,0,0,0
20136.272,1,1,0,0,0
20176.285,1,1,0,0,0
20216.218,1,1,0,0,0
20256.281,1,1,0,0,0
20296.233,1,1,0,0,0
20336.279,1,1,0,0,0
20376.263,1,1,0,0,0
20416.277,1,1,0,0,0
20456.216,1,1,0,0,0
20496.247,1,1,0,0,0
20536.301,1,1,0,0,0
20576.277,1,1,0,0,0
20616.308,1,1,0,0,0
20656.248,1,1,0,0,0
20696.251,1,1,0,0,0
20736.259,1,1,0,0,0
20776.27,1,1,0,0,0
20816.293,1,1,0,0,0
20856.282,1,1,0,0,0
20896.226,1,1,0,0,0
20936.252,1,1,0,0,0
20976.239,1,1,0,0,0
21016.271,1,1,0,0,0
21056.297,1,1,0,0,0
21096.284,1,1,0,0,0
21136.219,1,1,0,0,0
21176.26,1,1,0,0,0
21216.234,1,1,0,0,0
21256.305,1,1,0,0,0
21296.285,1,1,0,0,0
21336.25,1,1,0,0,0
21376.218,1,1,0,0,0
21416.249,1,1,0,0,0
21456.291,1,1,0,0,0
21496.259,1,1,0,0,0
21536.311,1,1,0,0,0
21576.251,1,1,0,0,0
21616.244,1,1,0,0,0
21656.248,1,1,0,0,0
21696.274,1,1,0,0,0
21736.256,1,1,0,0,0
21776.278,1,1,0,0,0
21816.225,1,1,0,0,0
21856.259,1,1,0,0,0
21896.249,1,1,0,0,0
21936.296,1,1,0,0,0
21976.295,1,1,0,0,0
22016.279,1,1,0,0,0
22056.214,1,1,0,0,0
22096.249,1,1,0,0,0
22136.223,1,1,0,0,0
22176.282,1,1,0,0,0
22216.27,1,1,0,0,0
22256.242,1,1,0,0,0
22296.221,1,1,0,0,0
22336.252,1,1,0,0,0
22376.285,1,1,0,0,0
22416.273,1,1,0,0,0
22456.315,1,1,0,0,0
22496.242,1,1,0,0,0
22536.248,1,1,0,0,0
22576.241,1,1,0,0,0
22616.279,1,1,0,0,0
22656.27,1,1,0,0,0
22696.281,1,1,0,0,0
22736.24,1,1,0,0,0
22776.246,1,1,0,0,0
22816.267,1,1,0,0,0
22856.279,1,1,0,0,0
22896.264,1,1,0,0,0
22936.269,1,1,0,0,0
22976.221,1,1,0,0,0
23016.254,1,1,0,0,0
23056.263,1,1,0,0,0
23096.292,1,1,0,0,0
23136.284,1,1,0,0,0
23176.294,1,1,0,0,0
23216.216,1,1,0,0,0
23256.245,1,1,0,0,0
23296.284,1,1,0,0,0
23336.265,1,1,0,0,0
23376.284,1,1,0,0,0
23416.232,1,1,0,0,0
23456.275,1,1,0,0,0
23496.243,1,1,0,0,0
23536.302,1,1,0,0,0
23576.297,1,1,0,0,0
23616.289,1,1,0,0,0
23656.241,1,1,0,0,0
23696.249,1,1,0,0,0
23736.241,1,1,0,0,0
23776.276,1,1,0,0,0
23816.31,1,1,0,0,0
23856.249,1,1,0,0,0
23896.212,1,1,0,0,0
23936.245,1,1,0,0,0
23976.281,1,1,0,0,0
24016.273,1,1,0,0,0
24056.312,1,1,0,0,0
24096.279,1,1,0,0,0
24136.228,1,1,0,0,0
24176.249,1,1,0,0,0
24216.283,1,1,0,0,0
24256.289,1,1,0,0,0
24296.3,1,1,0,0,0
24336.247,1,1,0,0,0
24376.251,1,1,0,0,0
24416.246,1,1,0,0,0
24456.292,1,1,0,0,0
24496.294,1,1,0,0,0
24536.283,1,1,0,0,0
24576.224,1,1,0,0,0
24616.249,1,1,0,0,0
24656.241,1,1,0,0,0
24696.288,1,1,0,0,0
24736.262,1,1,0,0,0
24776.25,1,1,0,0,0
24816.221,1,1,0,0,0
24856.249,1,1,0,0,0
24896.279,1,1,0,0,0
24936.286,1,1,0,0,0
24976.272,1,1,0,0,0
25016.254,1,1,0,0,0
25056.266,1,1,0,0,0
25096.246,1,1,0,0,0
25136.292,1,1,0,0,0
25176.294,1,1,0,0,0
25216.273,1,1,0,0,0
25256.214,1,1,0,0,0
25296.252,1,1,0,0,0
25336.246,1,1,0,0,0
25376.28,1,1,0,0,0
25416.305,1,1,0,0,0
25456.27,1,1,0,0,0
25496.241,1,1,0,0,0
25536.254,1,1,0,0,0
25576.225,1,1,0,0,0
25616.281,1,1,0,0,0
25656.283,1,1,0,0,0
25696.297,1,1,0,0,0
25736.227,1,1,0,0,0
25776.245,1,1,0,0,0
25816.294,1,1,0,0,0
25856.307,1,1,0,0,0
25896.297,1,1,0,0,0
25936.266,1,1,0,0,0
25976.245,1,1,0,0,0
26016.249,1,1,0,0,0
26056.292,1,1,0,0,0
26096.296,1,1,0,0,0
26136.292,1,1,0,0,0
26176.247,1,1,0,0,0
26216.245,1,1,0,0,0
26256.295,1,1,0,0,0
26296.285,1,1,0,0,0
26336.294,1,1,0,0,0
26376.267,1,1,0,0,0
26416.217,1,1,0,0,0
26456.281,1,1,0,0,0
26496.215,1,1,0,0,0
26536.295,1,1,0,0,0
26576.308,1,1,0,0,0
26616.263,1,1,0,0,0
26656.22,1,1,0,0,0
26696.253,1,1,0,0,0
26736.272,1,1,0,0,0
26776.286,1,1,0,0,0
26816.292,1,1,0,0,0
26856.227,1,1,0,0,0
26896.244,1,1,0,0,0
26936.257,1,1,0,0,0
26976.271,1,1,0,0,0
27016.293,1,1,0,0,0
27056.298,1,1,0,0,0
27096.214,1,1,0,0,0
27136.259,1,1,0,0,0
27176.242,1,1,0,0,0
27216.286,1,1,0,0,0
27256.259,1,1,0,0,0
27296.27,1,1,0,0,0
27336.218,1,1,0,0,0
27376.253,1,1,0,0,0
27416.283,1,1,0,0,0
27456.276,1,1,0,0,0
27496.297,1,1,0,0,0
27536.281,1,1,0,0,0
27576.216,1,1,0,0,0
27616.244,1,1,0,0,0
27656.284,1,1,0,0,0
27696.292,1,1,0,0,0
27736.28,1,1,0,0,0
27776.248,1,1,0,0,0
27816.249,1,1,0,0,0
27856.247,1,1,0,0,0
27896.279,1,1,0,0,0
27936.313,1,1,0,0,0
27976.291,1,1,0,0,0
28016.221,1,1,0,0,0
28056.248,1,1,0,0,0
28096.238,1,1,0,0,0
28136.279,1,1,0,0,0
28176.284,1,1,0,0,0
28216.286,1,1,0,0,0
28256.215,1,1,0,0,0
28296.251,1,1,0,0,0
28336.275,1,1,0,0,0
28376.259,1,1,0,0,0
28416.324,1,1,0,0,0
28456.268,1,1,0,0,0
28496.241,1,1,0,0,0
28536.253,1,1,0,0,0
28576.285,1,1,0,0,0
28616.292,1,1,0,0,0
28656.295,1,1,0,0,0
28696.216,1,1,0,0,0
28736.246,1,1,0,0,0
28776.242,1,1,0,0,0
28816.285,1,1,0,0,0
28856.302,1,1,0,0,0
28896.283,1,1,0,0,0
28936.235,1,1,0,0,0
28976.247,1,1,0,0,0
29016.227,1,1,0,0,0
29056.284,1,1,0,0,0
29096.274,1,1,0,0,0
29136.26,1,1,0,0,0
29176.222,1,1,0,0,0
29216.242,1,1,0,0,0
29256.28,1,1,0,0,0
29296.256,1,1,0,0,0
29336.294,1,1,0,0,0
29376.25,1,1,0,0,0
29416.245,1,1,0,0,0
29456.245,1,1,0,0,0
29496.272,1,1,0,0,0
29536.28,1,1,0,0,0
29576.279,1,1,0,0,0
29616.214,1,1,0,0,0
29656.251,1,1,0,0,0
29696.24,1,1,0,0,0
29736.279,1,1,0,0,0
29776.285,1,1,0,0,0
29816.268,1,1,0,0,0
29856.223,1,1,0,0,0
29896.244,1,1,0,0,0
29936.217,1,1,0,0,0
29976.289,1,1,0,0,0
30016.234,1,1,0,0,0
30056.278,1,1,0,0,0
30096.205,1,1,0,0,0
30136.241,1,1,0,0,0
30176.267,1,1,0,0,0
30216.237,1,1,0,0,0
30256.253,1,1,0,0,0
30296.226,1,1,0,0,0
30336.203,1,1,0,0,0
30376.239,1,1,0,0,0
30416.278,1,1,0,0,0
30456.287,1,1,0,0,0
30496.283,1,1,0,0,0
30536.208,1,1,0,0,0
30576.241,1,1,0,0,0
30616.229,1,1,0,0,0
30656.274,1,1,0,0,0
30696.288,1,1,0,0,0
30736.26,1,1,0,0,0
30776.223,1,1,0,0,0
30816.241,1,1,0,0,0
30856.255,1,1,0,0,0
30896.251,1,1,0,0,0
30936.316,1,1,0,0,0
30976.252,1,1,0,0,0
31016.229,1,1,0,0,0
31056.239,1,1,0,0,0
31096.259,1,1,0,0,0
31136.285,1,1,0,0,0
31176.288,1,1,0,0,0
31216.213,1,1,0,0,0
31256.231,1,1,0,0,0
31296.244,1,1,0,0,0
31336.268,1,1,0,0,0
31376.28,1,1,0,0,0
31416.271,1,1,0,0,0
31456.208,1,1,0,0,0
31496.261,1,1,0,0,0
31536.226,1,1,0,0,0
31576.27,1,1,0,0,0
31616.275,1,1,0,0,0
31656.248,1,1,0,0,0
31696.209,1,1,0,0,0
31736.232,1,1,0,0,0
31776.28,1,1,0,0,0
31816.247,1,1,0,0,0
31856.326,1,1,0,0,0
31896.242,1,1,0,0,0
31936.208,1,1,0,0,0
31976.237,1,1,0,0,0
32016.271,1,1,0,0,0
32056.256,1,1,0,0,0
32096.269,1,1,0,0,0
32136.202,1,1,0,0,0
32176.23,1,1,0,0,0
32216.25,1,1,0,0,0
32256.276,1,1,0,0,0
32296.271,1,1,0,0,0
32336.273,1,1,0,0,0
32376.207,1,1,0,0,0
32416.234,1,1,0,0,0
32456.223,1,1,0,0,0
32496.26,1,1,0,0,0
32536.247,1,1,0,0,0
32576.246,1,1,0,0,0
32616.212,1,1,0,0,0
32656.239,1,1,0,0,0
32696.28,1,1,0,0,0
32736.246,1,1,0,0,0
32776.279,1,1,0,0,0
32816.242,1,1,0,0,0
32856.234,1,1,0,0,0
32896.256,1,1,0,0,0
32936.274,1,1,0,0,0
32976.309,1,1,0,0,0
33016.28,1,1,0,0,0
33056.209,1,1,0,0,0
33096.229,1,1,0,0,0
33136.23,1,1,0,0,0
33176.281,1,1,0,0,0
33216.285,1,1,0,0,0
33256.248,1,1,0,0,0
33296.216,1,1,0,0,0
33336.27,1,1,0,0,0
33376.217,1,1,0,0,0
33416.27,1,1,0,0,0
33456.26,1,1,0,0,0
33496.25,1,1,0,0,0
33536.211,1,1,0,0,0
33576.237,1,1,0,0,0
33616.268,1,1,0,0,0
33656.284,1,1,0,0,0
33696.287,1,1,0,0,0
33736.238,1,1,0,0,0
33776.215,1,1,0,0,0
33816.24,1,1,0,0,0
33856.291,1,1,0,0,0
33896.29,1,1,0,0,0
33936.267,1,1,0,0,0
33976.222,1,1,0,0,0
34016.235,1,1,0,0,0
34056.23,1,1,0,0,0
34096.27,1,1,0,0,0
34136.284,1,1,0,0,0
34176.286,1,1,0,0,0
34216.224,1,1,0,0,0
34256.234,1,1,0,0,0
34296.255,1,1,0,0,0
34336.267,1,1,0,0,0
34376.304,1,1,0,0,0
34416.246,1,1,0,0,0
34456.247,1,1,0,0,0
34496.238,1,1,0,0,0
34536.27,1,1,0,0,0
34576.264,1,1,0,0,0
34616.274,1,1,0,0,0
34656.211,1,1,0,0,0
34696.227,1,1,0,0,0
34736.349,1,1,0,0,0
34776.264,1,1,0,0,0
34816.278,1,1,0,0,0
34856.268,1,1,0,0,0
34896.214,1,1,0,0,0
34936.243,1,1,0,0,0
34976.225,1,1,0,0,0
35016.273,1,1,0,0,0
35056.278,1,1,0,0,0
35096.273,1,1,0,0,0
35136.206,1,1,0,0,0
35176.25,1,1,0,0,0
35216.246,1,1,0,0,0
35256.251,1,1,0,0,0
35296.294,1,1,0,0,0
35336.267,1,1,0,0,0
35376.202,1,1,0,0,0
35416.24,1,1,0,0,0
35456.259,1,1,0,0,0
35496.285,1,1,0,0,0
35536.278,1,1,0,0,0
35576.261,1,1,0,0,0
35616.244,1,1,0,0,0
35656.256,1,1,0,0,0
35696.301,1,1,0,0,0
35736.293,1,1,0,0,0
35776.269,1,1,0,0,0
35816.216,1,1,0,0,0
35856.255,1,1,0,0,0
35896.221,1,1,0,0,0
35936.298,1,1,0,0,0
35976.271,1,1,0,0,0
36016.254,1,1,0,0,0
36056.216,1,1,0,0,0
36096.235,1,1,0,0,0
36136.257,1,1,0,0,0
36176.244,1,1,0,0,0
36216.283,1,1,0,0,0
36256.235,1,1,0,0,0
36296.242,1,1,0,0,0
36336.242,1,1,0,0,0
36376.269,1,1,0,0,0
36416.288,1,1,0,0,0
36456.271,1,1,0,0,0
36496.203,1,1,0,0,0
36536.245,1,1,0,0,0
36576.24,1,1,0,0,0
36616.273,1,1,0,0,0
36656.301,1,1,0,0,0
36696.273,1,1,0,0,0
36736.211,1,1,0,0,0
36776.236,1,1,0,0,0
36816.224,1,1,0,0,0
36856.263,1,1,0,0,0
36896.27,1,1,0,0,0
36936.258,1,1,0,0,0
36976.214,1,1,0,0,0
37016.244,1,1,0,0,0
37056.294,1,1,0,0,0
37096.254,1,1,0,0,0
37136.266,1,1,0,0,0
37176.254,1,1,0,0,0
37216.218,1,1,0,0,0
37256.255,1,1,0,0,0
37296.276,1,1,0,0,0
37336.317,1,1,0,0,0
37376.271,1,1,0,0,0
37416.224,1,1,0,0,0
37456.234,1,1,0,0,0
37496.238,1,1,0,0,0
37536.267,1,1,0,0,0
37576.279,1,1,0,0,0
37616.291,1,1,0,0,0
37656.224,1,1,0,0,0
37696.247,1,1,0,0,0
37736.207,1,1,0,0,0
37776.258,1,1,0,0,0
37816.317,1,1,0,0,0
37856.257,1,1,0,0,0
37896.207,1,1,0,0,0
37936.241,1,1,0,0,0
37976.295,1,1,0,0,0
38016.288,1,1,0,0,0
38056.326,1,1,0,0,0
38096.224,1,1,0,0,0
38136.238,1,1,0,0,0
38176.24,1,1,0,0,0
38216.261,1,1,0,0,0
38256.281,1,1,0,0,0
38296.295,1,1,0,0,0
38336.208,1,1,0,0,0
38376.239,1,1,0,0,0
38416.234,1,1,0,0,0
38456.272,1,1,0,0,0
38496.279,1,1,0,0,0
38536.266,1,1,0,0,0
38576.213,1,1,0,0,0
38616.244,1,1,0,0,0
38656.242,1,1,0,0,0
38696.261,1,1,0,0,0
38736.291,1,1,0,0,0
38776.26,1,1,0,0,0
38816.211,1,1,0,0,0
38856.238,1,1,0,0,0
38896.265,1,1,0,0,0
38936.293,1,1,0,0,0
38976.272,1,1,0,0,0
39016.264,1,1,0,0,0
39056.244,1,1,0,0,0
39096.239,1,1,0,0,0
39136.272,1,1,0,0,0
39176.263,1,1,0,0,0
39216.264,1,1,0,0,0
39256.211,1,1,0,0,0
39296.264,1,1,0,0,0
39336.223,1,1,0,0,0
39376.265,1,1,0,0,0
39416.249,1,1,0,0,0
39456.243,1,1,0,0,0
39496.209,1,1,0,0,0
39536.243,1,1,0,0,0
39576.276,1,1,0,0,0
39616.245,1,1,0,0,0
39656.292,1,1,0,0,0
39696.245,1,1,0,0,0
39736.204,1,1,0,0,0
39776.231,1,1,0,0,0
39816.263,1,1,0,0,0
39856.284,1,1,0,0,0
39896.288,1,1,0,0,0
39936.202,1,1,0,0,0
39976.235,1,1,0,0,0
40016.235,1,1,0,0,0
40056.271,1,1,0,0,0
40096.283,1,1,0,0,0
40136.283,1,1,0,0,0
40176.212,1,1,0,0,0
40216.232,1,1,0,0,0
40256.233,1,1,0,0,0
40296.265,1,1,0,0,0
40336.276,1,1,0,0,0
40376.237,1,1,0,0,0
40416.213,1,1,0,0,0
40456.233,1,1,0,0,0
40496.244,1,1,0,0,0
40536.29,1,1,0,0,0
40576.285,1,1,0,0,0
40616.239,1,1,0,0,0
40656.24,1,1,0,0,0
40696.232,1,1,0,0,0
40736.276,1,1,0,0,0
40776.282,1,1,0,0,0
40816.273,1,1,0,0,0
40856.228,1,1,0,0,0
40896.233,1,1,0,0,0
40936.247,1,1,0,0,0
40976.262,1,1,0,0,0
41016.279,1,1,0,0,0
41056.264,1,1,0,0,0
41096.206,1,1,0,0,0
41136.249,1,1,0,0,0
41176.21,1,1,0,0,0
41216.256,1,1,0,0,0
41256.282,1,1,0,0,0
41296.239,1,1,0,0,0
41336.202,1,1,0,0,0
41376.237,1,1,0,0,0
41416.27,1,1,0,0,0
41456.284,1,1,0,0,0
41496.293,1,1,0,0,0
41536.223,1,1,0,0,0
41576.202,1,1,0,0,0
41616.24,1,1,0,0,0
41656.285,1,1,0,0,0
41696.257,1,1,0,0,0
41736.265,1,1,0,0,0
41776.211,1,1,0,0,0
41816.237,1,1,0,0,0
41856.223,1,1,0,0,0
41896.264,1,1,0,0,0
41936.253,1,1,0,0,0
41976.249,1,1,0,0,0
42016.209,1,1,0,0,0
42056.254,1,1,0,0,0
42096.208,1,1,0,0,0
42136.264,1,1,0,0,0
42176.285,1,1,0,0,0
42216.24,1,1,0,0,0
42256.232,1,1,0,0,0
42296.244,1,1,0,0,0
42336.271,1,1,0,0,0
42376.28,1,1,0,0,0
42416.311,1,1,0,0,0
42456.212,1,1,0,0,0
42496.231,1,1,0,0,0
42536.234,1,1,0,0,0
42576.266,1,1,0,0,0
42616.284,1,1,0,0,0
42656.265,1,1,0,0,0
42696.219,1,1,0,0,0
42736.24,1,1,0,0,0
42776.241,1,1,0,0,0
42816.274,1,1,0,0,0
42856.267,1,1,0,0,0
42896.236,1,1,0,0,0
42936.214,1,1,0,0,0
42976.233,1,1,0,0,0
43016.24,1,1,0,0,0
43056.276,1,1,0,0,0
43096.289,1,1,0,0,0
43136.259,1,1,0,0,0
43176.206,1,1,0,0,0
43216.24,1,1,0,0,0
43256.26,1,1,0,0,0
43296.285,1,1,0,0,0
43336.264,1,1,0,0,0
43376.209,1,1,0,0,0
43416.238,1,1,0,0,0
43456.233,1,1,0,0,0
43496.314,1,1,0,0,0
43536.288,1,1,0,0,0
43576.263,1,1,0,0,0
43616.204,1,1,0,0,0
43656.236,1,1,0,0,0
43696.215,1,1,0,0,0
43736.278,1,1,0,0,0
43776.259,1,1,0,0,0
43816.238,1,1,0,0,0
43856.209,1,1,0,0,0
43896.237,1,1,0,0,0
43936.289,1,1,0,0,0
43976.257,1,1,0,0,0
44016.303,1,1,0,0,0
44056.236,1,1,0,0,0
44096.201,1,1,0,0,0
44136.24,1,1,0,0,0
44176.269,1,1,0,0,0
44216.238,1,1,0,0,0
44256.266,1,1,0,0,0
44296.205,1,1,0,0,0
44336.239,1,1,0,0,0
44376.241,1,1,0,0,0
44416.271,1,1,0,0,0
44456.271,1,1,0,0,0
44496.257,1,1,0,0,0
44536.212,1,1,0,0,0
44576.238,1,1,0,0,0
44616.217,1,1,0,0,0
44656.263,1,1,0,0,0
44696.272,1,1,0,0,0
44736.253,1,1,0,0,0
44776.204,1,1,0,0,0
44816.243,1,1,0,0,0
44856.242,1,1,0,0,0
44896.302,1,1,0,0,0
44936.287,1,1,0,0,0
44976.258,1,1,0,0,0
45016.234,1,1,0,0,0
45056.232,1,1,0,0,0
45096.267,1,1,0,0,0
45136.282,1,1,0,0,0
45176.267,1,1,0,0,0
45216.226,1,1,0,0,0
45256.235,1,1,0,0,0
45296.241,1,1,0,0,0
45336.27,1,1,0,0,0
45376.271,1,1,0,0,0
45416.254,1,1,0,0,0
45456.212,1,1,0,0,0
45496.234,1,1,0,0,0
45536.297,1,1,0,0,0
45576.274,1,1,0,0,0
45616.299,1,1,0,0,0
45656.247,1,1,0,0,0
45696.21,1,1,0,0,0
45736.237,1,1,0,0,0
45776.271,1,1,0,0,0
45816.302,1,1,0,0,0
45856.276,1,1,0,0,0
45896.226,1,1,0,0,0
45936.236,1,1,0,0,0
45976.238,1,1,0,0,0
46016.266,1,1,0,0,0
46056.294,1,1,0,0,0
46096.281,1,1,0,0,0
46136.206,1,1,0,0,0
46176.245,1,1,0,0,0
46216.234,1,1,0,0,0
46256.26,1,1,0,0,0
46296.282,1,1,0,0,0
46336.25,1,1,0,0,0
46376.209,1,1,0,0,0
46416.23,1,1,0,0,0
46456.238,1,1,0,0,0
46496.255,1,1,0,0,0
46536.269,1,1,0,0,0
46576.289,1,1,0,0,0
46616.209,1,1,0,0,0
46656.254,1,1,0,0,0
46696.269,1,1,0,0,0
46736.258,1,1,0,0,0
46776.273,1,1,0,0,0
46816.256,1,1,0,0,0
46856.249,1,1,0,0,0
46896.24,1,1,0,0,0
46936.292,1,1,0,0,0
46976.28,1,1,0,0,0
47016.283,1,1,0,0,0
47056.223,1,1,0,0,0
47096.237,1,1,0,0,0
47136.222,1,1,0,0,0
47176.282,1,1,0,0,0
47216.265,1,1,0,0,0
47256.268,1,1,0,0,0
47296.208,1,1,0,0,0
47336.236,1,1,0,0,0
47376.274,1,1,0,0,0
47416.249,1,1,0,0,0
47456.299,1,1,0,0,0
47496.276,1,1,0,0,0
47536.222,1,1,0,0,0
47576.235,1,1,0,0,0
47616.262,1,1,0,0,0
47656.281,1,1,0,0,0
47696.267,1,1,0,0,0
47736.211,1,1,0,0,0
47776.229,1,1,0,0,0
47816.244,1,1,0,0,0
47856.277,1,1,0,0,0
47896.282,1,1,0,0,0
47936.261,1,1,0,0,0
47976.201,1,1,0,0,0
48016.239,1,1,0,0,0
48056.223,1,1,0,0,0
48096.267,1,1,0,0,0
48136.32,1,1,0,0,0
48176.25,1,1,0,0,0
48216.204,1,1,0,0,0
48256.23,1,1,0,0,0
48296.275,1,1,0,0,0
48336.282,1,1,0,0,0
48376.273,1,1,0,0,0
48416.242,1,1,0,0,0
48456.237,1,1,0,0,0
48496.238,1,1,0,0,0
48536.266,1,1,0,0,0
48576.303,1,1,0,0,0
48616.263,1,1,0,0,0
48656.205,1,1,0,0,0
48696.235,1,1,0,0,0
48736.242,1,1,0,0,0
48776.279,1,1,0,0,0
48816.255,1,1,0,0,0
48856.265,1,1,0,0,0
48896.211,1,1,0,0,0
48936.254,1,1,0,0,0
48976.205,1,1,0,0,0
49016.266,1,1,0,0,0
49056.275,1,1,0,0,0
49096.245,1,1,0,0,0
49136.274,1,1,0,0,0
49176.249,1,1,0,0,0
49216.256,1,1,0,0,0
49256.283,1,1,0,0,0
49296.291,1,1,0,0,0
49336.217,1,1,0,0,0
49376.227,1,1,0,0,0
49416.246,1,1,0,0,0
49456.286,1,1,0,0,0
49496.28,1,1,0,0,0
49536.318,1,1,0,0,0
49576.203,1,1,0,0,0
49616.238,1,1,0,0,0
49656.225,1,1,0,0,0
49696.269,1,1,0,0,0
49736.288,1,1,0,0,0
49776.24,1,1,0,0,0
49816.209,1,1,0,0,0
49856.236,1,1,0,0,0
49896.209,1,1,0,0,0
49936.25,1,1,0,0,0
49976.314,1,1,0,0,0
50016.267,1,1,0,0,0
50056.212,1,1,0,0,0
50096.24,1,1,0,0,0
50136.276,1,1,0,0,0
50176.281,1,1,0,0,0
50216.268,1,1,0,0,0
50256.209,1,1,0,0,0
50296.235,1,1,0,0,0
50336.245,1,1,0,0,0
50376.262,1,1,0,0,0
50416.3,1,1,0,0,0
50456.275,1,1,0,0,0
50496.207,1,1,0,0,0
50536.241,1,1,0,0,0
50576.229,1,1,0,0,0
50616.255,1,1,0,0,0
50656.272,1,1,0,0,0
50696.25,1,1,0,0,0
50736.211,1,1,0,0,0
50776.229,1,1,0,0,0
50816.266,1,1,0,0,0
50856.246,1,1,0,0,0
50896.312,1,1,0,0,0
50936.247,1,1,0,0,0
50976.214,1,1,0,0,0
51016.238,1,1,0,0,0
51056.267,1,1,0,0,0
51096.255,1,1,0,0,0
51136.275,1,1,0,0,0
51176.208,1,1,0,0,0
51216.231,1,1,0,0,0
51256.253,1,1,0,0,0
51296.271,1,1,0,0,0
51336.271,1,1,0,0,0
51376.268,1,1,0,0,0
51416.214,1,1,0,0,0
51456.237,1,1,0,0,0
51496.227,1,1,0,0,0
51536.274,1,1,0,0,0
51576.247,1,1,0,0,0
51616.26,1,1,0,0,0
51656.212,1,1,0,0,0
51696.259,1,1,0,0,0
51736.274,1,1,0,0,0
51776.238,1,1,0,0,0
51816.265,1,1,0,0,0
51856.243,1,1,0,0,0
51896.206,1,1,0,0,0
51936.246,1,1,0,0,0
51976.263,1,1,0,0,0
52016.309,1,1,0,0,0
52056.263,1,1,0,0,0
52096.21,1,1,0,0,0
52136.236,1,1,0,0,0
52176.24,1,1,0,0,0
52216.27,1,1,0,0,0
52256.286,1,1,0,0,0
52296.261,1,1,0,0,0
52336.204,1,1,0,0,0
52376.25,1,1,0,0,0
52416.217,1,1,0,0,0
52456.264,1,1,0,0,0
52496.284,1,1,0,0,0
52536.281,1,1,0,0,0
52576.213,1,1,0,0,0
52616.243,1,1,0,0,0
52656.264,1,1,0,0,0
52696.305,1,1,0,0,0
52736.284,1,1,0,0,0
52776.24,1,1,0,0,0
52816.233,1,1,0,0,0
52856.237,1,1,0,0,0
52896.269,1,1,0,0,0
52936.28,1,1,0,0,0
52976.263,1,1,0,0,0
53016.208,1,1,0,0,0
53056.234,1,1,0,0,0
53096.239,1,1,0,0,0
53136.286,1,1,0,0,0
53176.278,1,1,0,0,0
53216.256,1,1,0,0,0
53256.202,1,1,0,0,0
53296.263,1,1,0,0,0
53336.227,1,1,0,0,0
53376.249,1,1,0,0,0
53416.295,1,1,0,0,0
53456.242,1,1,0,0,0
53496.206,1,1,0,0,0
53536.244,1,1,0,0,0
53576.274,1,1,0,0,0
53616.257,1,1,0,0,0
53656.29,1,1,0,0,0
53696.22,1,1,0,0,0
53736.235,1,1,0,0,0
53776.231,1,1,0,0,0
53816.29,1,1,0,0,0
53856.259,1,1,0,0,0
53896.273,1,1,0,0,0
53936.204,1,1,0,0,0
53976.24,1,1,0,0,0
54016.221,1,1,0,0,0
54056.266,1,1,0,0,0
54096.257,1,1,0,0,0
54136.256,1,1,0,0,0
54176.217,1,1,0,0,0
54216.235,1,1,0,0,0
54256.284,1,1,0,0,0
54296.243,1,1,0,0,0
54336.314,1,1,0,0,0
54376.243,1,1,0,0,0
54416.213,1,1,0,0,0
54456.253,1,1,0,0,0
54496.266,1,1,0,0,0
54536.286,1,1,0,0,0
54576.272,1,1,0,0,0
54616.254,1,1,0,0,0
54656.231,1,1,0,0,0
54696.249,1,1,0,0,0
54736.264,1,1,0,0,0
54776.278,1,1,0,0,0
54816.275,1,1,0,0,0
54856.208,1,1,0,0,0
54896.246,1,1,0,0,0
54936.227,1,1,0,0,0
54976.259,1,1,0,0,0
55016.266,1,1,0,0,0
55056.263,1,1,0,0,0
55096.208,1,1,0,0,0
55136.247,1,1,0,0,0
55176.289,1,1,0,0,0
55216.247,1,1,0,0,0
55256.276,1,1,0,0,0
55296.264,1,1,0,0,0
55336.242,1,1,0,0,0
55376.234,1,1,0,0,0
55416.263,1,1,0,0,0
55456.262,1,1,0,0,0
55496.265,1,1,0,0,0
55536.207,1,1,0,0,0
55576.234,1,1,0,0,0
55616.235,1,1,0,0,0
55656.262,1,1,0,0,0
55696.291,1,1,0,0,0
55736.266,1,1,0,0,0
55776.206,1,1,0,0,0
55816.256,1,1,0,0,0
55856.205,1,1,0,0,0
55896.265,1,1,0,0,0
55936.291,1,1,0,0,0
55976.248,1,1,0,0,0
56016.208,1,1,0,0,0
56056.239,1,1,0,0,0
56096.269,1,1,0,0,0
56136.256,1,1,0,0,0
56176.267,1,1,0,0,0
56216.237,1,1,0,0,0
56256.216,1,1,0,0,0
56296.229,1,1,0,0,0
56336.284,1,1,0,0,0
56376.254,1,1,0,0,0
56416.265,1,1,0,0,0
56456.203,1,1,0,0,0
56496.234,1,1,0,0,0
56536.237,1,1,0,0,0
56576.27,1,1,0,0,0
56616.285,1,1,0,0,0
56656.25,1,1,0,0,0
56696.221,1,1,0,0,0
56736.238,1,1,0,0,0
56776.279,1,1,0,0,0
56816.286,1,1,0,0,0
56856.295,1,1,0,0,0
56896.27,1,1,0,0,0
56936.234,1,1,0,0,0
56976.228,1,1,0,0,0
57016.264,1,1,0,0,0
57056.284,1,1,0,0,0
57096.269,1,1,0,0,0
57136.232,1,1,0,0,0
57176.247,1,1,0,0,0
57216.262,1,1,0,0,0
57256.263,1,1,0,0,0
57296.301,1,1,0,0,0
57336.267,1,1,0,0,0
57376.201,1,1,0,0,0
57416.238,1,1,0,0,0
57456.228,1,1,0,0,0
57496.265,1,1,0,0,0
57536.281,1,1,0,0,0
57576.274,1,1,0,0,0
57616.201,1,1,0,0,0
57656.246,1,1,0,0,0
57696.251,1,1,0,0,0
57736.249,1,1,0,0,0
57776.28,1,1,0,0,0
57816.248,1,1,0,0,0
57856.199,1,1,0,0,0
57896.242,1,1,0,0,0
57936.272,1,1,0,0,0
57976.242,1,1,0,0,0
58016.272,1,1,0,0,0
58056.237,1,1,0,0,0
58096.233,1,1,0,0,0
58136.235,1,1,0,0,0
58176.29,1,1,0,0,0
58216.282,1,1,0,0,0
58256.261,1,1,0,0,0
58296.217,1,1,0,0,0
58336.239,1,1,0,0,0
58376.217,1,1,0,0,0
58416.265,1,1,0,0,0
58456.256,1,1,0,0,0
58496.258,1,1,0,0,0
58536.22,1,1,0,0,0
58576.243,1,1,0,0,0
58616.283,1,1,0,0,0
58656.241,1,1,0,0,0
58696.269,1,1,0,0,0
58736.244,1,1,0,0,0
58776.204,1,1,0,0,0
58816.247,1,1,0,0,0
58856.266,1,1,0,0,0
58896.272,1,1,0,0,0
58936.288,1,1,0,0,0
58976.209,1,1,0,0,0
59016.232,1,1,0,0,0
59056.245,1,1,0,0,0
59096.264,1,1,0,0,0
59136.28,1,1,0,0,0
59176.285,1,1,0,0,0
59216.205,1,1,0,0,0
59256.245,1,1,0,0,0
59296.215,1,1,0,0,0
59336.283,1,1,0,0,0
59376.262,1,1,0,0,0
59416.283,1,1,0,0,0
59456.208,1,1,0,0,0
59496.24,1,1,0,0,0
59536.284,1,1,0,0,0
59576.243,1,1,0,0,0
59616.306,1,1,0,0,0
59656.233,1,1,0,0,0
59696.221,1,1,0,0,0
59736.234,1,1,0,0,0
59776.266,1,1,0,0,0
59816.287,1,1,0,0,0
59856.264,1,1,0,0,0
59896.202,1,1,0,0,0
59936.24,1,1,0,0,0
59976.232,1,1,0,0,0
60016.257,1,1,0,0,0
60056.28,1,1,0,0,0
60096.259,1,1,0,0,0
60136.215,1,1,0,0,0
60176.241,1,1,0,0,0
60216.207,1,1,0,0,0
60256.261,1,1,0,0,0
60296.29,1,1,0,0,0
60336.246,1,1,0,0,0
60376.209,1,1,0,0,0
60416.241,1,1,0,0,0
60456.269,1,1,0,0,0
60496.302,1,1,0,0,0
60536.287,1,1,0,0,0
60576.214,1,1,0,0,0
60616.214,1,1,0,0,0
60656.239,1,1,0,0,0
60696.257,1,1,0,0,0
60736.258,1,1,0,0,0
60776.288,1,1,0,0,0
60816.206,1,1,0,0,0
60856.249,1,1,0,0,0
60896.235,1,1,0,0,0
60936.281,1,1,0,0,0
60976.247,1,1,0,0,0
61016.259,1,1,0,0,0
61056.209,1,1,0,0,0
61096.241,1,1,0,0,0
61136.266,1,1,0,0,0
61176.261,1,1,0,0,0
61216.294,1,1,0,0,0
61256.263,1,1,0,0,0
61296.213,1,1,0,0,0
61336.246,1,1,0,0,0
61376.26,1,1,0,0,0
61416.259,1,1,0,0,0
61456.292,1,1,0,0,0
61496.224,1,1,0,0,0
61536.236,1,1,0,0,0
61576.241,1,1,0,0,0
61616.269,1,1,0,0,0
61656.281,1,1,0,0,0
61696.286,1,1,0,0,0
61736.208,1,1,0,0,0
61776.243,1,1,0,0,0
61816.223,1,1,0,0,0
61856.268,1,1,0,0,0
61896.271,1,1,0,0,0
61936.246,1,1,0,0,0
61976.209,1,1,0,0,0
62016.239,1,1,0,0,0
62056.268,1,1,0,0,0
62096.247,1,1,0,0,0
62136.306,1,1,0,0,0
62176.251,1,1,0,0,0
62216.207,1,1,0,0,0
62256.28,1,1,0,0,0
62296.261,1,1,0,0,0
62336.285,1,1,0,0,0
62376.274,1,1,0,0,0
62416.247,1,1,0,0,0
62456.255,1,1,0,0,0
62496.238,1,1,0,0,0
62536.272,1,1,0,0,0
62576.286,1,1,0,0,0
62616.294,1,1,0,0,0
62656.209,1,1,0,0,0
62696.254,1,1,0,0,0
62736.215,1,1,0,0,0
62776.256,1,1,0,0,0
62816.286,1,1,0,0,0
62856.233,1,1,0,0,0
62896.212,1,1,0,0,0
62936.237,1,1,0,0,0
62976.27,1,1,0,0,0
63016.259,1,1,0,0,0
63056.281,1,1,0,0,0
63096.254,1,1,0,0,0
63136.2,1,1,0,0,0
63176.248,1,1,0,0,0
63216.265,1,1,0,0,0
63256.254,1,1,0,0,0
63296.282,1,1,0,0,0
63336.204,1,1,0,0,0
63376.249,1,1,0,0,0
63416.233,1,1,0,0,0
63456.28,1,1,0,0,0
63496.251,1,1,0,0,0
63536.287,1,1,0,0,0
63576.207,1,1,0,0,0
63616.255,1,1,0,0,0
63656.218,1,1,0,0,0
63696.254,1,1,0,0,0
63736.304,1,1,0,0,0
63776.236,1,1,0,0,0
63816.212,1,1,0,0,0
63856.239,1,1,0,0,0
63896.271,1,1,0,0,0
63936.285,1,1,0,0,0
63976.278,1,1,0,0,0
64016.234,1,1,0,0,0
64056.219,1,1,0,0,0
64096.236,1,1,0,0,0
64136.269,1,1,0,0,0
64176.281,1,1,0,0,0
64216.291,1,1,0,0,0
64256.203,1,1,0,0,0
64296.24,1,1,0,0,0
64336.263,1,1,0,0,0
64376.264,1,1,0,0,0
64416.276,1,1,0,0,0
64456.262,1,1,0,0,0
64496.237,1,1,0,0,0
64536.247,1,1,0,0,0
64576.276,1,1,0,0,0
64616.26,1,1,0,0,0
64656.288,1,1,0,0,0
64696.25,1,1,0,0,0
64736.212,1,1,0,0,0
64776.231,1,1,0,0,0
64816.267,1,1,0,0,0
64856.255,1,1,0,0,0
64896.271,1,1,0,0,0
64936.213,1,1,0,0,0
64976.242,1,1,0,0,0
65016.252,1,1,0,0,0
65056.266,1,1,0,0,0
65096.293,1,1,0,0,0
65136.26,1,1,0,0,0
65176.222,1,1,0,0,0
65216.231,1,1,0,0,0
65256.229,1,1,0,0,0
65296.273,1,1,0,0,0
65336.271,1,1,0,0,0
65376.236,1,1,0,0,0
65416.215,1,1,0,0,0
65456.26,1,1,0,0,0
65496.234,1,1,0,0,0
65536.269,1,1,0,0,0
65576.301,1,1,0,0,0
65616.243,1,1,0,0,0
65656.201,1,1,0,0,0
65696.238,1,1,0,0,0
65736.265,1,1,0,0,0
65776.251,1,1,0,0,0
65816.269,1,1,0,0,0
65856.208,1,1,0,0,0
65896.235,1,1,0,0,0
65936.243,1,1,0,0,0
65976.3,1,1,0,0,0
66016.275,1,1,0,0,0
66056.315,1,1,0,0,0
66096.203,1,1,0,0,0
66136.24,1,1,0,0,0
66176.216,1,1,0,0,0
66216.27,1,1,0,0,0
66256.259,1,1,0,0,0
66296.277,1,1,0,0,0
66336.211,1,1,0,0,0
66376.236,1,1,0,0,0
66416.243,1,1,0,0,0
66456.289,1,1,0,0,0
66496.281,1,1,0,0,0
66536.26,1,1,0,0,0
66576.202,1,1,0,0,0
66616.229,1,1,0,0,0
66656.26,1,1,0,0,0
66696.287,1,1,0,0,0
66736.265,1,1,0,0,0
66776.261,1,1,0,0,0
66816.241,1,1,0,0,0
66856.23,1,1,0,0,0
66896.271,1,1,0,0,0
66936.298,1,1,0,0,0
66976.266,1,1,0,0,0
67016.202,1,1,0,0,0
67056.247,1,1,0,0,0
67096.242,1,1,0,0,0
67136.262,1,1,0,0,0
67176.316,1,1,0,0,0
67216.237,1,1,0,0,0
67256.201,1,1,0,0,0
67296.25,1,1,0,0,0
67336.274,1,1,0,0,0
67376.265,1,1,0,0,0
67416.288,1,1,0,0,0
67456.254,1,1,0,0,0
67496.212,1,1,0,0,0
67536.234,1,1,0,0,0
67576.27,1,1,0,0,0
67616.285,1,1,0,0,0
67656.263,1,1,0,0,0
67696.21,1,1,0,0,0
67736.233,1,1,0,0,0
67776.231,1,1,0,0,0
67816.268,1,1,0,0,0
67856.253,1,1,0,0,0
67896.251,1,1,0,0,0
67936.213,1,1,0,0,0
67976.257,1,1,0,0,0
68016.21,1,1,0,0,0
68056.269,1,1,0,0,0
68096.3,1,1,0,0,0
68136.244,1,1,0,0,0
68176.206,1,1,0,0,0
68216.23,1,1,0,0,0
68256.287,1,1,0,0,0
68296.259,1,1,0,0,0
68336.308,1,1,0,0,0
68376.213,1,1,0,0,0
68416.245,1,1,0,0,0
68456.23,1,1,0,0,0
68496.264,1,1,0,0,0
68536.289,1,1,0,0,0
68576.284,1,1,0,0,0
68616.237,1,1,0,0,0
68656.238,1,1,0,0,0
68696.236,1,1,0,0,0
68736.265,1,1,0,0,0
68776.274,1,1,0,0,0
68816.283,1,1,0,0,0
68856.202,1,1,0,0,0
68896.255,1,1,0,0,0
68936.252,1,1,0,0,0
68976.253,1,1,0,0,0
69016.284,1,1,0,0,0
69056.25,1,1,0,0,0
69096.203,1,1,0,0,0
69136.237,1,1,0,0,0
69176.261,1,1,0,0,0
69216.247,1,1,0,0,0
69256.288,1,1,0,0,0
69296.237,1,1,0,0,0
69336.252,1,1,0,0,0
69376.232,1,1,0,0,0
69416.301,1,1,0,0,0
69456.284,1,1,0,0,0
69496.274,1,1,0,0,0
69536.211,1,1,0,0,0
69576.238,1,1,0,0,0
69616.219,1,1,0,0,0
69656.284,1,1,0,0,0
69696.296,1,1,0,0,0
69736.252,1,1,0,0,0
69776.207,1,1,0,0,0
69816.237,1,1,0,0,0
69856.229,1,1,0,0,0
69896.259,1,1,0,0,0
69936.292,1,1,0,0,0
69976.265,1,1,0,0,0
70016.22,1,1,0,0,0
70056.246,1,1,0,0,0
70096.271,1,1,0,0,0
70136.259,1,1,0,0,0
70176.272,1,1,0,0,0
70216.233,1,1,0,0,0
70256.245,1,1,0,0,0
70296.238,1,1,0,0,0
70336.305,1,1,0,0,0
70376.258,1,1,0,0,0
70416.281,1,1,0,0,0
70456.208,1,1,0,0,0
70496.235,1,1,0,0,0
70536.224,1,1,0,0,0
70576.273,1,1,0,0,0
70616.256,1,1,0,0,0
70656.256,1,1,0,0,0
70696.224,1,1,0,0,0
70736.24,1,1,0,0,0
70776.275,1,1,0,0,0
70816.265,1,1,0,0,0
70856.301,1,1,0,0,0
70896.26,1,1,0,0,0
70936.222,1,1,0,0,0
70976.246,1,1,0,0,0
71016.273,1,1,0,0,0
71056.306,1,1,0,0,0
71096.276,1,1,0,0,0
71136.214,1,1,0,0,0
71176.239,1,1,0,0,0
71216.238,1,1,0,0,0
71256.274,1,1,0,0,0
71296.291,1,1,0,0,0
71336.263,1,1,0,0,0
71376.204,1,1,0,0,0
71416.233,1,1,0,0,0
71456.239,1,1,0,0,0
71496.258,1,1,0,0,0
71536.295,1,1,0,0,0
71576.241,1,1,0,0,0
71616.213,1,1,0,0,0
71656.232,1,1,0,0,0
71696.28,1,1,0,0,0
71736.27,1,1,0,0,0
71776.268,1,1,0,0,0
71816.248,1,1,0,0,0
71856.231,1,1,0,0,0
71896.258,1,1,0,0,0
71936.274,1,1,0,0,0
71976.303,1,1,0,0,0
72016.283,1,1,0,0,0
72056.205,1,1,0,0,0
72096.236,1,1,0,0,0
72136.224,1,1,0,0,0
72176.266,1,1,0,0,0
72216.279,1,1,0,0,0
72256.238,1,1,0,0,0
72296.206,1,1,0,0,0
72336.244,1,1,0,0,0
72376.235,1,1,0,0,0
72416.251,1,1,0,0,0
72456.292,1,1,0,0,0
72496.242,1,1,0,0,0
72536.213,1,1,0,0,0
72576.252,1,1,0,0,0
72616.268,1,1,0,0,0
72656.259,1,1,0,0,0
72696.288,1,1,0,0,0
72736.226,1,1,0,0,0
72776.248,1,1,0,0,0
72816.237,1,1,0,0,0
72856.277,1,1,0,0,0
72896.259,1,1,0,0,0
72936.275,1,1,0,0,0
72976.204,1,1,0,0,0
73016.237,1,1,0,0,0
73056.226,1,1,0,0,0
73096.264,1,1,0,0,0
73136.254,1,1,0,0,0
73176.248,1,1,0,0,0
73216.205,1,1,0,0,0
73256.232,1,1,0,0,0
73296.283,1,1,0,0,0
73336.277,1,1,0,0,0
73376.32,1,1,0,0,0
73416.249,1,1,0,0,0
73456.238,1,1,0,0,0
73496.234,1,1,0,0,0
73536.265,1,1,0,0,0
73576.283,1,1,0,0,0
73616.269,1,1,0,0,0
73656.205,1,1,0,0,0
73696.228,1,1,0,0,0
73736.246,1,1,0,0,0
73776.259,1,1,0,0,0
73816.303,1,1,0,0,0
73856.257,1,1,0,0,0
73896.202,1,1,0,0,0
73936.235,1,1,0,0,0
73976.21,1,1,0,0,0
74016.266,1,1,0,0,0
74056.256,1,1,0,0,0
74096.237,1,1,0,0,0
74136.202,1,1,0,0,0
74176.239,1,1,0,0,0
74216.267,1,1,0,0,0
74256.256,1,1,0,0,0
74296.28,1,1,0,0,0
74336.227,1,1,0,0,0
74376.218,1,1,0,0,0
74416.239,1,1,0,0,0
74456.284,1,1,0,0,0
74496.283,1,1,0,0,0
74536.257,1,1,0,0,0
74576.204,1,1,0,0,0
74616.228,1,1,0,0,0
74656.237,1,0.9999805092811584,-0.0006123792845755816,0.006215189583599567,-9.112952284340281e-06
74696.27,1,0.9999805688858032,-0.0005694484570994973,0.006208853330463171,-2.637093530211132e-05
74736.308,1,0.9999805688858032,-0.0005383183597587049,0.006208061706274748,-2.9103641281835735e-05
74776.258,1,0.9999806880950928,-0.0005347453989088535,0.0061912620440125465,-1.6471884009661153e-05
74816.22,1,0.9999808073043823,-0.0005134285311214626,0.006173375993967056,-1.878409238997847e-05
74856.236,1,0.999980628490448,-0.0004869217227678746,0.006206055171787739,-4.4252163206692785e-05
74896.207,1,0.9999806880950928,-0.0004886951646767557,0.006192337721586227,-3.0178680390235968e-05
74936.264,1,0.9999806880950928,-0.0004941082443110645,0.006196741014719009,-2.7721676815417595e-05
74976.286,1,0.9999805688858032,-0.0004947544075548649,0.006217345595359802,-4.238338442519307e-05
75016.252,1,0.9999805688858032,-0.00047721879673190415,0.006213902495801449,-3.330637264298275e-05
75056.211,1,0.9999803900718689,-0.00048102959408424795,0.006246771663427353,-4.1748458897927776e-05
75096.227,1,0.9999805092811584,-0.00048476626398041844,0.006226278841495514,-4.9931615649256855e-05
75136.254,1,0.9999805092811584,-0.0005108463810756803,0.006219570059329271,-5.6859269534470513e-05
75176.256,1,0.999980628490448,-0.0004954554024152458,0.006202929653227329,-8.388422429561615e-05
75216.261,1,0.9999805688858032,-0.0004963084356859326,0.006214401684701443,-7.960583752719685e-05
75256.243,1,0.9999805092811584,-0.0005127724725753069,0.006220758426934481,-8.536860696040094e-05
75296.225,1,0.9999802708625793,-0.0005069453036412597,0.006258479785174131,-9.842280996963382e-05
75336.231,1,0.9999803304672241,-0.00050605449359864,0.006254127249121666,-0.00011874632764374837
75376.257,1,0.9999802112579346,-0.00052799959667027,0.006267991848289967,-0.00011226943752262741
75416.276,1,0.9999802112579346,-0.0005577537231147289,0.006264112889766693,-0.00012416481331456453
75456.27,1,0.999980092048645,-0.000549875374417752,0.006283063907176256,-0.0001242107682628557
75496.2,1,0.9999802112579346,-0.0005488849128596485,0.00626614224165678,-0.00011724277283065021
75536.248,1,0.9999802708625793,-0.0005617309361696243,0.006258315406739712,-0.00012339210661593825
75576.226,1,0.9999803304672241,-0.0005780548672191799,0.00624094856902957,-0.0001253212831215933
75616.266,1,0.9999803900718689,-0.0005690310499630868,0.006230860482901335,-0.0001269658241653815
75656.27,1,0.9999803900718689,-0.0005659940070472658,0.00623301463201642,-0.0001401105400873348
75696.267,1,0.999980628490448,-0.0005908278399147093,0.006197414826601744,-0.00014621904119849205
75736.201,1,0.9999805688858032,-0.0006005262257531285,0.006200006231665611,-0.00016719989071134478
75776.23,1,0.9999806880950928,-0.0005922394338995218,0.006179447751492262,-0.0001867019454948604
75816.274,1,0.9999808073043823,-0.0006000006105750799,0.006164100021123886,-0.00019131122098769993
75856.245,1,0.9999809265136719,-0.0006330403266474605,0.0061373282223939896,-0.00018944252224173397
75896.279,1,0.9999809861183167,-0.0006585190421901643,0.006129339803010225,-0.00017942616250365973
75936.262,1,0.9999810457229614,-0.0006556280422955751,0.006118847988545895,-0.00020121605484746397
75976.199,1,0.999981164932251,-0.0006731540197506547,0.006096811033785343,-0.00019349456124473363
76016.227,1,0.9999812841415405,-0.0006899797008372843,0.006073433440178633,-0.0001920435461215675
76056.26,1,0.9999814033508301,-0.0007242289721034467,0.006051234435290098,-0.000185381097253412
76096.283,1,0.9999815225601196,-0.0007192741031758487,0.0060308161191642284,-0.00019930957932956517
76136.276,1,0.9999816417694092,-0.0007344718324020505,0.006010669283568859,-0.000215121079236269
76176.241,1,0.9999817609786987,-0.0007873479044064879,0.005984599236398935,-0.00020903241238556802
76216.232,1,0.9999818801879883,-0.0008134407689794898,0.005958024878054857,-0.00020854217291343957
76256.235,1,0.9999819993972778,-0.000818141212221235,0.005939820781350136,-0.00020413882157299668
76296.268,1,0.9999820590019226,-0.0008447025902569294,0.005922470707446337,-0.0002247841766802594
76336.276,1,0.9999822974205017,-0.0008697282755747437,0.00588260218501091,-0.00024081565788947046
76376.315,1,0.9999824166297913,-0.0008770737913437188,0.0058554429560899734,-0.0002491941850166768
76416.215,1,0.9999826550483704,-0.0008819279028102756,0.0058210743591189384,-0.00026614891248755157
76456.231,1,0.9999826550483704,-0.0009038972784765065,0.005814387928694487,-0.00026283436454832554
76496.216,1,0.9999828934669495,-0.0009033369133248925,0.005776621401309967,-0.0002537338004913181
76536.273,1,0.9999828338623047,-0.0008975284290499985,0.00577919464558363,-0.0002718028554227203
76576.288,1,0.9999828934669495,-0.0008917157538235188,0.0057729328982532024,-0.00028837687568739057
76616.228,1,0.9999829530715942,-0.0008932088385336101,0.005759860388934612,-0.0002790774160530418
76656.203,1,0.999983012676239,-0.0008912264602258801,0.00575459748506546,-0.0002617773716337979
76696.229,1,0.999983012676239,-0.000886204419657588,0.005750997457653284,-0.0002736272872425616
76736.247,1,0.9999830722808838,-0.0008776772883720696,0.005747455637902021,-0.0002905963337980211
76776.262,1,0.9999831318855286,-0.0008928654133342206,0.005728039424866438,-0.0002774210588540882
76816.289,1,0.9999830722808838,-0.0009007917251437902,0.00573628069832921,-0.0002889441093429923
76856.264,1,0.9999830722808838,-0.0008921073167584836,0.005744753871113062,-0.00028904364444315434
76896.201,1,0.9999831318855286,-0.0008988058543764055,0.005729340016841888,-0.0003054622793570161
76936.238,1,0.9999833106994629,-0.0008751304121688008,0.005700636655092239,-0.0003055484557989985
76976.258,1,0.9999832510948181,-0.0008518501999787986,0.00571664422750473,-0.0003239831712562591
77016.272,1,0.9999833703041077,-0.0008459298987872899,0.0056904153898358345,-0.0003252506721764803
77056.27,1,0.9999834895133972,-0.0008529396145604551,0.005672947503626347,-0.0003377675311639905
77096.2,1,0.9999833703041077,-0.0008478513336740434,0.0056905001401901245,-0.000339749560225755
77136.234,1,0.9999833106994629,-0.0008440185920335352,0.0056996154598891735,-0.0003518330631777644
77176.234,1,0.9999832510948181,-0.0008555992972105742,0.005711053963750601,-0.0003375803353264928
77216.267,1,0.9999832510948181,-0.0008512808126397431,0.005714591592550278,-0.00032437697518616915
77256.274,1,0.9999831318855286,-0.0008584302267991006,0.005730779841542244,-0.00033316120970994234
77296.263,1,0.9999831914901733,-0.0008542737341485918,0.005727632902562618,-0.00033056287793442607
77336.2,1,0.9999833106994629,-0.0008524112636223435,0.005709453951567411,-0.00032556700170971453
77376.228,1,0.9999832510948181,-0.0008499769610352814,0.005715179722756147,-0.0003255050687585026
77416.223,1,0.9999833106994629,-0.0008671447867527604,0.005704240407794714,-0.000316845893394202
77456.311,1,0.9999833703041077,-0.0008471501059830189,0.005700898822396994,-0.0003066582139581442
77496.254,1,0.9999833703041077,-0.0008630817173980176,0.005687540862709284,-0.00032672935049049556
77536.233,1,0.9999834299087524,-0.00087219406850636,0.00568126467987895,-0.00032970213214866817
77576.206,1,0.999983549118042,-0.000850655313115567,0.00566549226641655,-0.00032377574825659394
77616.228,1,0.9999836087226868,-0.0008530417690053582,0.005647862795740366,-0.0003164849185850471
77656.26,1,0.9999836683273315,-0.0008271748665720224,0.0056463489308953285,-0.00034600566141307354
77696.264,1,0.9999837279319763,-0.0008476960356347263,0.005632667802274227,-0.000345143664162606
77736.266,1,0.9999837279319763,-0.0008768414263613522,0.005624324548989534,-0.0003610459971241653
77776.236,1,0.9999837875366211,-0.0008549555204808712,0.005618513096123934,-0.00038762440090067685
77816.204,1,0.9999837875366211,-0.0008682662737555802,0.005616345442831516,-0.0003914258268196136
77856.251,1,0.9999838471412659,-0.0008650695672258735,0.005606105085462332,-0.00039249652763828635
77896.253,1,0.9999839067459106,-0.0008541605202481151,0.005591749679297209,-0.00040281619294546545
77936.289,1,0.999984085559845,-0.0008376228506676853,0.005569634959101677,-0.0004068238486070186
77976.252,1,0.9999839067459106,-0.0008539913105778396,0.005594621878117323,-0.00041368952952325344
78016.2,1,0.9999839067459106,-0.000879095692653209,0.005594045855104923,-0.0004095204349141568
78056.231,1,0.9999839663505554,-0.0008743995567783713,0.00557455699890852,-0.00043129688128829
78096.228,1,0.9999839663505554,-0.0008918815292418003,0.005579095799475908,-0.00044214914669282734
78136.252,1,0.9999840259552002,-0.0008986155735328794,0.005565484054386616,-0.0004453090368770063
78176.273,1,0.9999839067459106,-0.0009133168496191502,0.005585524719208479,-0.0004612882621586323
78216.28,1,0.9999838471412659,-0.0009119925671257079,0.005593465641140938,-0.000446925638243556
78256.222,1,0.9999837279319763,-0.0009188944241032004,0.00561679108068347,-0.00044321405584923923
78296.228,1,0.9999836683273315,-0.0009229881106875837,0.005619278643280268,-0.00044259411515668035
78336.228,1,0.9999836683273315,-0.000932488008402288,0.005618872120976448,-0.00046012469101697206
78376.258,1,0.9999836087226868,-0.0009292613831348717,0.005633655469864607,-0.0004522594972513616
78416.288,1,0.999983549118042,-0.0009145760559476912,0.005640876479446888,-0.00047200583503581583
78456.262,1,0.999983549118042,-0.0009239235077984631,0.005642266012728214,-0.00046445996849797666
78496.199,1,0.9999836683273315,-0.000920625519938767,0.005620304495096207,-0.00047590609756298363
78536.231,1,0.9999837279319763,-0.0009307062719017267,0.0056048184633255005,-0.00046098692109808326
78576.261,1,0.9999838471412659,-0.0009373878710903227,0.005592036060988903,-0.00044764491030946374
78616.228,1,0.9999837279319763,-0.0009586653904989362,0.005606623366475105,-0.00041793467244133353
78656.283,1,0.9999838471412659,-0.0009653121815063059,0.005586680956184864,-0.00042699306504800916
78696.255,1,0.9999837875366211,-0.0009589003748260438,0.005594135262072086,-0.0004372562107164413
78736.216,1,0.9999837279319763,-0.0009886003099381924,0.005599122494459152,-0.00044227493344806135
78776.236,1,0.9999837875366211,-0.001009043538942933,0.005584955681115389,-0.00044001181959174573
78816.26,1,0.9999838471412659,-0.0010038126492872834,0.005573706701397896,-0.00045249713002704084
78856.293,1,0.9999840259552002,-0.001009611296467483,0.005542386323213577,-0.0004602450062520802
78896.262,1,0.999984085559845,-0.001026435405947268,0.0055313389748334885,-0.00045157677959650755
78936.211,1,0.999984085559845,-0.0010385060450062156,0.005524919368326664,-0.00045423972187563777
78976.224,1,0.999984085559845,-0.0010414454154670238,0.005529419984668493,-0.0004563156107906252
79016.224,1,0.9999843239784241,-0.0010210142936557531,0.00548601197078824,-0.0004582374240271747
79056.262,1,0.9999844431877136,-0.0010160765377804637,0.005462657194584608,-0.0004326176131144166
79096.267,1,0.9999845623970032,-0.0010304645402356982,0.0054470631293952465,-0.0004291655495762825
79136.261,1,0.999984622001648,-0.0010322974994778633,0.005427043419331312,-0.00042389531154185534
79176.204,1,0.999984622001648,-0.0010483621153980494,0.005423638503998518,-0.00043228897266089916
79216.248,1,0.9999845623970032,-0.0010610828176140785,0.005433688871562481,-0.00042101676808670163
79256.21,1,0.9999845623970032,-0.0010715601965785027,0.005437790881842375,-0.00041049515129998326
79296.279,1,0.9999845623970032,-0.0010627300944179296,0.005441776476800442,-0.0003997781313955784
79336.277,1,0.9999845623970032,-0.0010778616415336728,0.005437528248876333,-0.0003987928794231266
79376.226,1,0.999984622001648,-0.0010720643913373351,0.005425987299531698,-0.0003869333886541426
79416.203,1,0.999984622001648,-0.0010933788726106286,0.005420658737421036,-0.00039485350134782493
79456.229,1,0.9999847412109375,-0.0010969059076160192,0.005399591755121946,-0.0004008110845461488
79496.252,1,0.9999848008155823,-0.0010855267755687237,0.005392883438616991,-0.000400050834286958
79536.291,1,0.9999848008155823,-0.001089568017050624,0.005395933985710144,-0.0003915604611393064
79576.268,1,0.9999849200248718,-0.0011056564981117845,0.005363451316952705,-0.0004022963985335082
79616.22,1,0.9999849796295166,-0.001111629419028759,0.005355353467166424,-0.000401742581743747
79656.228,1,0.9999850988388062,-0.001118047977797687,0.00532476045191288,-0.00040312731289304793
79696.242,1,0.9999852776527405,-0.0011281452607363462,0.005294146481901407,-0.0004402217746246606
79736.266,1,0.9999852776527405,-0.0011300911428406835,0.005290457978844643,-0.00044204798177815974
79776.251,1,0.9999853372573853,-0.0011181025765836239,0.005282355006784201,-0.0004409790853969753
79816.257,1,0.99998539686203,-0.001152234268374741,0.005262113641947508,-0.00044723239261657
79856.202,1,0.99998539686203,-0.001169494236819446,0.005254434421658516,-0.00043260096572339535
79896.224,1,0.99998539686203,-0.0011847418500110507,0.005254460033029318,-0.0004334199184086174
79936.222,1,0.99998539686203,-0.001189841073937714,0.005247969646006823,-0.00044426965177990496
79976.26,1,0.99998539686203,-0.001231514965184033,0.005246917717158794,-0.00042128455243073404
80016.239,1,0.9999855756759644,-0.0012349991593509912,0.005212506279349327,-0.00041710055666044354
80056.246,1,0.9999856352806091,-0.00124556093942374,0.005196935497224331,-0.0004142640682402998
80096.206,1,0.9999856352806091,-0.0012398825492709875,0.0051934244111180305,-0.0004200861440040171
80136.227,1,0.9999858736991882,-0.0012525174533948302,0.005150011274963617,-0.00044312208774499595
80176.274,1,0.999985933303833,-0.0012530547101050615,0.005134173668920994,-0.00044607202289626
80216.261,1,0.9999860525131226,-0.0012365797301754355,0.005114605184644461,-0.00042857538210228086
80256.259,1,0.9999861121177673,-0.0012298199580982327,0.005109739024192095,-0.00042920702253468335
80296.235,1,0.9999861121177673,-0.0012574046850204468,0.0051065352745354176,-0.0004065854591317475
80336.207,1,0.9999861121177673,-0.0012512628454715014,0.005105970893055201,-0.0003910284722223878
80376.226,1,0.9999861717224121,-0.0012368869502097368,0.005100867245346308,-0.00036532225203700364
80416.26,1,0.9999861717224121,-0.0012581092305481434,0.005091886501759291,-0.0003458283899817616
80456.277,1,0.9999861717224121,-0.0012843592558056116,0.0050925277173519135,-0.00032346477382816374
80496.279,1,0.9999861717224121,-0.001276288996450603,0.005087410565465689,-0.0003231553710065782
80536.224,1,0.9999862313270569,-0.0012639034539461136,0.005082566291093826,-0.00031375460093840957
80576.24,1,0.9999862909317017,-0.0012733401963487267,0.00506971450522542,-0.0003260211378801614
80616.238,1,0.9999863505363464,-0.0012648142874240875,0.0050560468807816505,-0.0003171251155436039
80656.294,1,0.9999864101409912,-0.0012917198473587632,0.005036898888647556,-0.00030656225862912834
80696.274,1,0.9999865293502808,-0.0012913348618894815,0.0050245774909853935,-0.0002895364013966173
80736.281,1,0.9999865889549255,-0.0013003454077988863,0.0050011505372822285,-0.0002990450302604586
80776.21,1,0.9999865889549255,-0.00131024734582752,0.004995887167751789,-0.0003070472739636898
80816.233,1,0.9999865889549255,-0.0012979783350601792,0.0049990504048764706,-0.00030898742261342704
80856.215,1,0.9999865889549255,-0.0012882438022643328,0.00500619038939476,-0.00031019587186165154
80896.261,1,0.9999865293502808,-0.001310923951677978,0.005006559658795595,-0.0003158405888825655
80936.279,1,0.9999865889549255,-0.0012974919518455863,0.005011264700442553,-0.00027838468668051064
80976.227,1,0.9999867081642151,-0.0012824778677895665,0.004979579709470272,-0.0003078063018620014
81016.199,1,0.9999867677688599,-0.001249050721526146,0.0049768853932619095,-0.0002904138818848878
81056.234,1,0.9999867081642151,-0.0012330496683716774,0.00500019546598196,-0.000275290833087638
81096.243,1,0.9999866485595703,-0.001262341276742518,0.005007582250982523,-0.0002600340230856091
81136.238,1,0.9999865293502808,-0.0012436481192708015,0.005032264161854982,-0.0002473315689712763
81176.281,1,0.999986469745636,-0.0012309768935665488,0.00504279974848032,-0.0002365044056205079
81216.235,1,0.999986469745636,-0.0012414627708494663,0.005043903365731239,-0.0002272055862704292
81256.204,1,0.9999865293502808,-0.0012337241787463427,0.005032973829656839,-0.00020479665545281023
81296.229,1,0.9999865889549255,-0.0012102507753297687,0.005029513966292143,-0.0002014112105825916
81336.267,1,0.9999865293502808,-0.0012123365886509418,0.00504321837797761,-0.0001986173738259822
81376.299,1,0.9999865889549255,-0.0012026955373585224,0.005034682806581259,-0.00019922350475098938
81416.277,1,0.9999866485595703,-0.0011958916438743472,0.00502068130299449,-0.00019874736608471721
81456.2,1,0.9999865889549255,-0.001191148068755865,0.0050404006615281105,-0.00020919264352414757
81496.226,1,0.9999865293502808,-0.001207804074510932,0.005049172323197126,-0.0002033188211498782
81536.234,1,0.9999865889549255,-0.001185698201879859,0.005039922893047333,-0.00021542032482102513
81576.259,1,0.9999865293502808,-0.0011750028934329748,0.005049857776612043,-0.0002080796257359907
81616.275,1,0.9999865293502808,-0.0011624685721471906,0.005051565822213888,-0.00022759323474019766
81656.263,1,0.9999865293502808,-0.0011676119174808264,0.0050548287108540535,-0.0002176489360863343
81696.201,1,0.9999865293502808,-0.001168037997558713,0.005046674981713295,-0.00022773270029574633
81736.252,1,0.9999865293502808,-0.0011792794102802873,0.005053880158811808,-0.00022911351697985083
81776.212,1,0.9999865889549255,-0.0011743768118321896,0.0050415839068591595,-0.00023767445236444473
81816.255,1,0.9999865293502808,-0.0011928941821679473,0.005047135055065155,-0.00023361551575362682
81856.267,1,0.9999865293502808,-0.001194818876683712,0.005040932912379503,-0.00023879519721958786
81896.252,1,0.9999864101409912,-0.00119308743160218,0.005065992008894682,-0.00023356817837338895
81936.206,1,0.9999864101409912,-0.0012023139279335737,0.005062248557806015,-0.0002361541846767068
81976.231,1,0.9999865293502808,-0.001206945045851171,0.005041788332164288,-0.00024224839580710977
82016.28,1,0.999986469745636,-0.0011896933428943157,0.005059032700955868,-0.00023262064496520907
82056.229,1,0.9999864101409912,-0.0011901251273229718,0.005065659061074257,-0.00023891261662356555
82096.297,1,0.9999864101409912,-0.0011758500477299094,0.005075130145996809,-0.0002519714762456715
82136.225,1,0.999986469745636,-0.0011691254330798984,0.005063020158559084,-0.00025185776758007705
82176.214,1,0.9999865293502808,-0.0011607232736423612,0.005054084118455648,-0.0002371944865444675
82216.232,1,0.9999866485595703,-0.0011448408477008343,0.005030730739235878,-0.00024551720707677305
82256.258,1,0.9999866485595703,-0.0011422992683947086,0.005030963569879532,-0.0002701354678720236
82296.251,1,0.9999867677688599,-0.0011252512922510505,0.005017332267016172,-0.00026266195345669985
82336.275,1,0.9999867677688599,-0.001110060140490532,0.00501647824421525,-0.0002678174350876361
82376.211,1,0.9999868273735046,-0.0010792551329359412,0.005006866995245218,-0.0002558815467637032
82416.228,1,0.9999869465827942,-0.001083443989045918,0.004989461041986942,-0.0002449249441269785
82456.23,1,0.9999870657920837,-0.0010795372072607279,0.004967936780303717,-0.000254642975050956
82496.25,1,0.9999870657920837,-0.0010557471541687846,0.004965584725141525,-0.00024915780522860587
82536.277,1,0.9999870657920837,-0.0010551426094025373,0.004967757035046816,-0.0002715671726036817
82576.261,1,0.999987006187439,-0.0010615837527438998,0.004974845796823502,-0.00029288328369148076
82616.199,1,0.9999869465827942,-0.0010625807335600257,0.00498390756547451,-0.00030016066739335656
82656.226,1,0.9999869465827942,-0.0010441612685099244,0.00499117374420166,-0.00028564149397425354
82696.206,1,0.999987006187439,-0.0010348239447921515,0.0049863154999911785,-0.0002811838057823479
82736.273,1,0.9999869465827942,-0.001045597018674016,0.004999521654099226,-0.0002735564485192299
82776.295,1,0.9999868869781494,-0.0010351877426728606,0.005014614202082157,-0.00025846020434983075
82816.242,1,0.9999868273735046,-0.001024769269861281,0.005019607022404671,-0.0002490712213329971
82856.203,1,0.9999868273735046,-0.0010296368272975087,0.005020271521061659,-0.00025556038599461317
82896.229,1,0.9999868869781494,-0.0010438179597258568,0.005006010178476572,-0.00027604459319263697
82936.262,1,0.9999868869781494,-0.0010405754437670112,0.005010351072996855,-0.00028197787469252944
82976.281,1,0.9999869465827942,-0.0010175653733313084,0.005000622943043709,-0.0002968265034724027
83016.267,1,0.9999870657920837,-0.0009950955864042044,0.004977355245500803,-0.00030696281464770436
83056.23,1,0.9999869465827942,-0.0009828833863139153,0.005002891179174185,-0.00032527593430131674
83096.211,1,0.9999869465827942,-0.0009610174456611276,0.0050063468515872955,-0.0003128697571810335
83136.227,1,0.9999868869781494,-0.0009548867819830775,0.005018455907702446,-0.00029907713178545237
83176.267,1,0.9999868869781494,-0.0009620102355256677,0.005021615885198116,-0.00030312378657981753
83216.283,1,0.9999869465827942,-0.0009530653478577733,0.005012453068047762,-0.0003066108329221606
83256.287,1,0.9999868869781494,-0.0009265082771889865,0.005022227764129639,-0.00030450892518274486
83296.23,1,0.9999868869781494,-0.0009401754359714687,0.005028998479247093,-0.00028376022237353027
83336.23,1,0.9999868869781494,-0.0009336269577033818,0.005033680237829685,-0.0002604238979984075
83376.219,1,0.9999868273735046,-0.0009393481886945665,0.005043513607233763,-0.0002747969119809568
83416.273,1,0.999987006187439,-0.0009223063825629652,0.005008482839912176,-0.00028910127002745867
83456.267,1,0.9999869465827942,-0.0009182788198813796,0.005016196519136429,-0.0002920170081779361
83496.249,1,0.9999869465827942,-0.0009185732342302799,0.005017788149416447,-0.00029659835854545236
83536.204,1,0.999987006187439,-0.0008961990824900568,0.005011808592826128,-0.00029901089146733284
83576.231,1,0.9999869465827942,-0.0009088619262911379,0.005022791679948568,-0.00026208526105619967
83616.288,1,0.9999868869781494,-0.0009310414898209274,0.005025395657867193,-0.0002646785869728774
83656.262,1,0.9999868273735046,-0.000936490367166698,0.005041378550231457,-0.00025120622012764215
83696.288,1,0.9999868869781494,-0.0009224689565598965,0.005031065549701452,-0.00023260705347638577
83736.259,1,0.9999867677688599,-0.0009166186209768057,0.005058096721768379,-0.00023572084319312125
83776.204,1,0.9999867081642151,-0.0009106303914450109,0.005069294013082981,-0.00024793247575871646
83816.232,1,0.9999867081642151,-0.0009034222457557917,0.00506657874211669,-0.0002565662143751979
83856.265,1,0.9999867081642151,-0.0009000852005556226,0.005072852596640587,-0.00025571181322447956
83896.278,1,0.9999867081642151,-0.0008869668818078935,0.005065698176622391,-0.00027876198873855174
83936.275,1,0.9999867677688599,-0.0008993851370178163,0.0050580743700265884,-0.0002699955366551876
83976.237,1,0.9999868273735046,-0.0008813341846689582,0.005051569081842899,-0.00027569395024329424
84016.227,1,0.9999867677688599,-0.00089598837075755,0.00506177544593811,-0.0002668583474587649
84056.231,1,0.9999867677688599,-0.0009013946400955319,0.0050544035620987415,-0.0002605783811304718
84096.265,1,0.9999867677688599,-0.000906491419300437,0.005052063148468733,-0.00025726036983542144
84136.271,1,0.9999868273735046,-0.0008921876433305442,0.005046981852501631,-0.00025298731634393334
84176.256,1,0.9999868869781494,-0.0008914978825487196,0.005031634122133255,-0.00026117899687960744
84216.216,1,0.9999869465827942,-0.0008725303341634572,0.0050318269059062,-0.0002640894672367722
84256.243,1,0.9999868869781494,-0.000859034014865756,0.005045324098318815,-0.0002558687119744718
84296.22,1,0.9999869465827942,-0.000876692938618362,0.0050225392915308475,-0.00028344307793304324
84336.281,1,0.9999868869781494,-0.0008707833476364613,0.005041700787842274,-0.0002748618135228753
84376.256,1,0.9999867677688599,-0.000860578496940434,0.005058789160102606,-0.0002814509498421103
84416.241,1,0.9999867677688599,-0.0008778156479820609,0.005057598929852247,-0.00028097484027966857
