time_boot_ms,C,Q1,Q2,Q3,Q4
6135.644,0,1,0,0,0
6176.295,0,1,0,0,0
6216.229,0,1,0,0,0
6256.246,0,1,0,0,0
6296.245,0,1,0,0,0
6336.284,0,1,0,0,0
6376.296,0,1,0,0,0
6416.281,0,1,0,0,0
6456.218,0,1,0,0,0
6496.251,0,1,0,0,0
6536.253,0,1,0,0,0
6576.293,0,1,0,0,0
6616.278,0,1,0,0,0
6656.252,0,1,0,0,0
6696.221,0,1,0,0,0
6736.28,0,1,0,0,0
6776.274,0,1,0,0,0
6816.296,0,1,0,0,0
6856.29,0,1,0,0,0
6896.253,0,1,0,0,0
6936.26,0,1,0,0,0
6976.241,0,1,0,0,0
7016.307,0,1,0,0,0
7056.295,0,1,0,0,0
7096.273,0,1,0,0,0
7136.223,0,1,0,0,0
7176.257,0,1,0,0,0
7216.259,0,1,0,0,0
7256.272,0,1,0,0,0
7296.292,0,1,0,0,0
7336.27,0,1,0,0,0
7376.219,0,1,0,0,0
7416.26,0,1,0,0,0
7456.218,0,1,0,0,0
7496.274,0,1,0,0,0
7536.317,0,1,0,0,0
7576.282,0,1,0,0,0
7616.226,0,1,0,0,0
7656.253,0,1,0,0,0
7696.28,0,1,0,0,0
7736.272,0,1,0,0,0
7776.294,0,1,0,0,0
7816.235,0,1,0,0,0
7856.243,0,1,0,0,0
7896.248,0,1,0,0,0
7936.279,0,1,0,0,0
7976.291,0,1,0,0,0
8016.279,0,1,0,0,0
8056.211,0,1,0,0,0
8096.246,0,1,0,0,0
8136.251,0,1,0,0,0
8176.276,0,1,0,0,0
8216.254,0,1,0,0,0
8256.271,0,1,0,0,0
8296.22,0,1,0,0,0
8336.275,0,1,0,0,0
8376.278,0,1,0,0,0
8416.268,0,1,0,0,0
8456.287,0,1,0,0,0
8496.257,0,1,0,0,0
8536.231,0,1,0,0,0
8576.256,0,1,0,0,0
8616.274,0,1,0,0,0
8656.266,0,1,0,0,0
8696.303,0,1,0,0,0
8736.227,0,1,0,0,0
8776.247,0,1,0,0,0
8816.278,0,1,0,0,0
8856.27,0,1,0,0,0
8896.315,0,1,0,0,0
8936.295,0,1,0,0,0
8976.221,0,1,0,0,0
9016.254,0,1,0,0,0
9056.239,0,1,0,0,0
9096.292,0,1,0,0,0
9136.285,0,1,0,0,0
9176.267,0,1,0,0,0
9216.216,0,1,0,0,0
9256.244,0,1,0,0,0
9296.28,0,1,0,0,0
9336.283,0,1,0,0,0
9376.302,0,1,0,0,0
9416.262,0,1,0,0,0
9456.259,0,1,0,0,0
9496.257,0,1,0,0,0
9536.28,0,1,0,0,0
9576.299,0,1,0,0,0
9616.283,0,1,0,0,0
9656.228,0,1,0,0,0
9696.252,0,1,0,0,0
9736.251,0,1,0,0,0
9776.275,0,1,0,0,0
9816.314,0,1,0,0,0
9856.269,0,1,0,0,0
9896.221,0,1,0,0,0
9936.251,0,1,0,0,0
9976.24,0,1,0,0,0
10016.298,0,1,0,0,0
10056.279,0,1,0,0,0
10096.245,0,1,0,0,0
10136.226,0,1,0,0,0
10176.244,0,1,0,0,0
10216.274,0,1,0,0,0
10256.274,0,1,0,0,0
10296.314,0,1,0,0,0
10336.254,0,1,0,0,0
10376.242,0,1,0,0,0
10416.247,0,1,0,0,0
10456.281,0,1,0,0,0
10496.27,0,1,0,0,0
10536.278,0,1,0,0,0
10576.221,0,1,0,0,0
10616.251,0,1,0,0,0
10656.289,0,1,0,0,0
10696.283,0,1,0,0,0
10736.271,0,1,0,0,0
10776.271,0,1,0,0,0
10816.225,0,1,0,0,0
10856.265,0,1,0,0,0
10896.224,0,1,0,0,0
10936.302,0,1,0,0,0
10976.282,0,1,0,0,0
11016.266,0,1,0,0,0
11056.217,0,1,0,0,0
11096.249,0,1,0,0,0
11136.28,0,1,0,0,0
11176.296,0,1,0,0,0
11216.289,0,1,0,0,0
11256.242,0,1,0,0,0
11296.256,0,1,0,0,0
11336.244,0,1,0,0,0
11376.325,0,1,0,0,0
11416.295,0,1,0,0,0
11456.281,0,1,0,0,0
11496.232,0,1,0,0,0
11536.254,0,1,0,0,0
11576.25,0,1,0,0,0
11616.277,0,1,0,0,0
11656.309,0,1,0,0,0
11696.256,0,1,0,0,0
11736.226,0,1,0,0,0
11776.254,0,1,0,0,0
11816.286,0,1,0,0,0
11856.297,0,1,0,0,0
11896.306,0,1,0,0,0
11936.283,0,1,0,0,0
11976.233,0,1,0,0,0
12016.252,0,1,0,0,0
12056.283,0,1,0,0,0
12096.3,0,1,0,0,0
12136.29,0,1,0,0,0
12176.234,0,1,0,0,0
12216.26,0,1,0,0,0
12256.245,0,1,0,0,0
12296.275,0,1,0,0,0
12336.296,0,1,0,0,0
12376.28,0,1,0,0,0
12416.23,0,1,0,0,0
12456.247,0,1,0,0,0
12496.252,0,1,0,0,0
12536.286,0,1,0,0,0
12576.292,0,1,0,0,0
12616.256,0,1,0,0,0
12656.223,0,1,0,0,0
12696.258,0,1,0,0,0
12736.263,0,1,0,0,0
12776.284,0,1,0,0,0
12816.282,0,1,0,0,0
12856.258,0,1,0,0,0
12896.213,0,1,0,0,0
12936.251,0,1,0,0,0
12976.281,0,1,0,0,0
13016.271,0,1,0,0,0
13056.282,0,1,0,0,0
13096.232,0,1,0,0,0
13136.25,0,1,0,0,0
13176.25,0,1,0,0,0
13216.288,0,1,0,0,0
13256.273,0,1,0,0,0
13296.282,0,1,0,0,0
13336.224,0,1,0,0,0
13376.242,0,1,0,0,0
13416.237,0,1,0,0,0
13456.291,0,1,0,0,0
13496.285,0,1,0,0,0
13536.263,0,1,0,0,0
13576.214,0,1,0,0,0
13616.252,0,1,0,0,0
13656.284,0,1,0,0,0
13696.252,0,1,0,0,0
13736.341,0,1,0,0,0
13776.263,0,1,0,0,0
13816.246,0,1,0,0,0
13856.254,0,1,0,0,0
13896.28,0,1,0,0,0
13936.3,0,1,0,0,0
13976.278,0,1,0,0,0
14016.254,0,1,0,0,0
14056.244,0,1,0,0,0
14096.252,0,1,0,0,0
14136.293,0,1,0,0,0
14176.308,0,1,0,0,0
14216.271,0,1,0,0,0
14256.22,0,1,0,0,0
14296.25,0,1,0,0,0
14336.234,0,1,0,0,0
14376.284,0,1,0,0,0
14416.273,0,1,0,0,0
14456.277,0,1,0,0,0
14496.224,0,1,0,0,0
14536.25,0,1,0,0,0
14576.289,0,1,0,0,0
14616.302,0,1,0,0,0
14656.303,0,1,0,0,0
14696.248,0,1,0,0,0
14736.247,0,1,0,0,0
14776.247,0,1,0,0,0
14816.295,0,1,0,0,0
14856.289,0,1,0,0,0
14896.305,0,1,0,0,0
14936.214,0,1,0,0,0
14976.248,0,1,0,0,0
15016.243,0,1,0,0,0
15056.277,0,1,0,0,0
15096.266,0,1,0,0,0
15136.271,0,1,0,0,0
15176.236,0,1,0,0,0
15216.241,0,1,0,0,0
15256.22,0,1,0,0,0
15296.28,0,1,0,0,0
15336.277,0,1,0,0,0
15376.259,0,1,0,0,0
15416.247,0,1,0,0,0
15456.259,0,1,0,0,0
15496.275,0,1,0,0,0
15536.292,0,1,0,0,0
15576.29,0,1,0,0,0
15616.234,0,1,0,0,0
15656.245,0,1,0,0,0
15696.267,0,1,0,0,0
15736.275,0,1,0,0,0
15776.296,0,1,0,0,0
15816.304,0,1,0,0,0
15856.232,0,1,0,0,0
15896.253,0,1,0,0,0
15936.253,0,1,0,0,0
15976.275,0,1,0,0,0
16016.298,0,1,0,0,0
16056.288,0,1,0,0,0
16096.216,0,1,0,0,0
16136.253,0,1,0,0,0
16176.293,0,1,0,0,0
16216.265,0,1,0,0,0
16256.299,0,1,0,0,0
16296.279,0,1,0,0,0
16336.213,0,1,0,0,0
16376.253,0,1,0,0,0
16416.282,0,1,0,0,0
16456.293,0,1,0,0,0
16496.295,0,1,0,0,0
16536.271,0,1,0,0,0
16576.252,0,1,0,0,0
16616.24,0,1,0,0,0
16656.279,0,1,0,0,0
16696.3,0,1,0,0,0
16736.29,0,1,0,0,0
16776.217,0,1,0,0,0
16816.252,0,1,0,0,0
16856.239,0,1,0,0,0
16896.281,0,1,0,0,0
16936.301,0,1,0,0,0
16976.254,0,1,0,0,0
17016.225,0,1,0,0,0
17056.269,0,1,0,0,0
17096.278,0,1,0,0,0
17136.269,0,1,0,0,0
17176.314,0,1,0,0,0
17216.288,0,1,0,0,0
17256.228,0,1,0,0,0
17296.255,0,1,0,0,0
17336.268,0,1,0,0,0
17376.292,0,1,0,0,0
17416.295,0,1,0,0,0
17456.245,0,1,0,0,0
17496.247,0,1,0,0,0
17536.249,0,1,0,0,0
17576.299,0,1,0,0,0
17616.274,0,1,0,0,0
17656.285,0,1,0,0,0
17696.217,0,1,0,0,0
17736.251,0,1,0,0,0
17776.291,0,1,0,0,0
17816.284,0,1,0,0,0
17856.26,0,1,0,0,0
17896.271,0,1,0,0,0
17936.226,0,1,0,0,0
17976.252,0,1,0,0,0
18016.283,0,1,0,0,0
18056.296,0,1,0,0,0
18096.295,0,1,0,0,0
18136.249,0,1,0,0,0
18176.238,0,1,0,0,0
18216.253,0,1,0,0,0
18256.275,0,1,0,0,0
18296.311,0,1,0,0,0
18336.297,0,1,0,0,0
18376.223,0,1,0,0,0
18416.248,0,1,0,0,0
18456.249,0,1,0,0,0
18496.28,0,1,0,0,0
18536.299,0,1,0,0,0
18576.304,0,1,0,0,0
18616.213,0,1,0,0,0
18656.254,0,1,0,0,0
18696.308,0,1,0,0,0
18736.272,0,1,0,0,0
18776.294,0,1,0,0,0
18816.279,0,1,0,0,0
18856.218,0,1,0,0,0
18896.261,0,1,0,0,0
18936.282,0,1,0,0,0
18976.293,0,1,0,0,0
19016.302,0,1,0,0,0
19056.259,0,1,0,0,0
19096.242,0,1,0,0,0
19136.244,0,1,0,0,0
19176.28,0,1,0,0,0
19216.287,0,1,0,0,0
19256.27,0,1,0,0,0
19296.243,0,1,0,0,0
19336.251,0,1,0,0,0
19376.251,0,1,0,0,0
19416.277,0,1,0,0,0
19456.278,0,1,0,0,0
19496.263,0,1,0,0,0
19536.223,0,1,0,0,0
19576.246,0,1,0,0,0
19616.286,0,1,0,0,0
19656.266,0,1,0,0,0
19696.327,0,1,0,0,0
19736.25,0,1,0,0,0
19776.234,0,1,0,0,0
19816.25,0,1,0,0,0
19856.277,0,1,0,0,0
19896.272,0,1,0,0,0
19936.289,0,1,0,0,0
19976.214,0,1,0,0,0
20016.25,0,1,0,0,0
20056.245,0,1,0,0,0
20096.277,0,1,0,0,0
20136.272,0,1,0,0,0
20176.285,0,1,0,0,0
20216.218,0,1,0,0,0
20256.281,0,1,0,0,0
20296.233,0,1,0,0,0
20336.279,0,1,0,0,0
20376.263,0,1,0,0,0
20416.277,0,1,0,0,0
20456.216,0,1,0,0,0
20496.247,0,1,0,0,0
20536.301,0,1,0,0,0
20576.277,0,1,0,0,0
20616.308,0,1,0,0,0
20656.248,0,1,0,0,0
20696.251,0,1,0,0,0
20736.259,0,1,0,0,0
20776.27,0,1,0,0,0
20816.293,0,1,0,0,0
20856.282,0,1,0,0,0
20896.226,0,1,0,0,0
20936.252,0,1,0,0,0
20976.239,0,1,0,0,0
21016.271,0,1,0,0,0
21056.297,0,1,0,0,0
21096.284,0,1,0,0,0
21136.219,0,1,0,0,0
21176.26,0,1,0,0,0
21216.234,0,1,0,0,0
21256.305,0,1,0,0,0
21296.285,0,1,0,0,0
21336.25,0,1,0,0,0
21376.218,0,1,0,0,0
21416.249,0,1,0,0,0
21456.291,0,1,0,0,0
21496.259,0,1,0,0,0
21536.311,0,1,0,0,0
21576.251,0,1,0,0,0
21616.244,0,1,0,0,0
21656.248,0,1,0,0,0
21696.274,0,1,0,0,0
21736.256,0,1,0,0,0
21776.278,0,1,0,0,0
21816.225,0,1,0,0,0
21856.259,0,1,0,0,0
21896.249,0,1,0,0,0
21936.296,0,1,0,0,0
21976.295,0,1,0,0,0
22016.279,0,1,0,0,0
22056.214,0,1,0,0,0
22096.249,0,1,0,0,0
22136.223,0,1,0,0,0
22176.282,0,1,0,0,0
22216.27,0,1,0,0,0
22256.242,0,1,0,0,0
22296.221,0,1,0,0,0
22336.252,0,1,0,0,0
22376.285,0,1,0,0,0
22416.273,0,1,0,0,0
22456.315,0,1,0,0,0
22496.242,0,1,0,0,0
22536.248,0,1,0,0,0
22576.241,0,1,0,0,0
22616.279,0,1,0,0,0
22656.27,0,1,0,0,0
22696.281,0,1,0,0,0
22736.24,0,1,0,0,0
22776.246,0,1,0,0,0
22816.267,0,1,0,0,0
22856.279,0,1,0,0,0
22896.264,0,1,0,0,0
22936.269,0,1,0,0,0
22976.221,0,1,0,0,0
23016.254,0,1,0,0,0
23056.263,0,1,0,0,0
23096.292,0,1,0,0,0
23136.284,0,1,0,0,0
23176.294,0,1,0,0,0
23216.216,0,1,0,0,0
23256.245,0,1,0,0,0
23296.284,0,1,0,0,0
23336.265,0,1,0,0,0
23376.284,0,1,0,0,0
23416.232,0,1,0,0,0
23456.275,0,1,0,0,0
23496.243,0,1,0,0,0
23536.302,0,1,0,0,0
23576.297,0,1,0,0,0
23616.289,0,1,0,0,0
23656.241,0,1,0,0,0
23696.249,0,1,0,0,0
23736.241,0,1,0,0,0
23776.276,0,1,0,0,0
23816.31,0,1,0,0,0
23856.249,0,1,0,0,0
23896.212,0,1,0,0,0
23936.245,0,1,0,0,0
23976.281,0,1,0,0,0
24016.273,0,1,0,0,0
24056.312,0,1,0,0,0
24096.279,0,1,0,0,0
24136.228,0,1,0,0,0
24176.249,0,1,0,0,0
24216.283,0,1,0,0,0
24256.289,0,1,0,0,0
24296.3,0,1,0,0,0
24336.247,0,1,0,0,0
24376.251,0,1,0,0,0
24416.246,0,1,0,0,0
24456.292,0,1,0,0,0
24496.294,0,1,0,0,0
24536.283,0,1,0,0,0
24576.224,0,1,0,0,0
24616.249,0,1,0,0,0
24656.241,0,1,0,0,0
24696.288,0,1,0,0,0
24736.262,0,1,0,0,0
24776.25,0,1,0,0,0
24816.221,0,1,0,0,0
24856.249,0,1,0,0,0
24896.279,0,1,0,0,0
24936.286,0,1,0,0,0
24976.272,0,1,0,0,0
25016.254,0,1,0,0,0
25056.266,0,1,0,0,0
25096.246,0,1,0,0,0
25136.292,0,1,0,0,0
25176.294,0,1,0,0,0
25216.273,0,1,0,0,0
25256.214,0,1,0,0,0
25296.252,0,1,0,0,0
25336.246,0,1,0,0,0
25376.28,0,1,0,0,0
25416.305,0,1,0,0,0
25456.27,0,1,0,0,0
25496.241,0,1,0,0,0
25536.254,0,1,0,0,0
25576.225,0,1,0,0,0
25616.281,0,1,0,0,0
25656.283,0,1,0,0,0
25696.297,0,1,0,0,0
25736.227,0,1,0,0,0
25776.245,0,1,0,0,0
25816.294,0,1,0,0,0
25856.307,0,1,0,0,0
25896.297,0,1,0,0,0
25936.266,0,1,0,0,0
25976.245,0,1,0,0,0
26016.249,0,1,0,0,0
26056.292,0,1,0,0,0
26096.296,0,1,0,0,0
26136.292,0,1,0,0,0
26176.247,0,1,0,0,0
26216.245,0,1,0,0,0
26256.295,0,1,0,0,0
26296.285,0,1,0,0,0
26336.294,0,1,0,0,0
26376.267,0,1,0,0,0
26416.217,0,1,0,0,0
26456.281,0,1,0,0,0
26496.215,0,1,0,0,0
26536.295,0,1,0,0,0
26576.308,0,1,0,0,0
26616.263,0,1,0,0,0
26656.22,0,1,0,0,0
26696.253,0,1,0,0,0
26736.272,0,1,0,0,0
26776.286,0,1,0,0,0
26816.292,0,1,0,0,0
26856.227,0,1,0,0,0
26896.244,0,1,0,0,0
26936.257,0,1,0,0,0
26976.271,0,1,0,0,0
27016.293,0,1,0,0,0
27056.298,0,1,0,0,0
27096.214,0,1,0,0,0
27136.259,0,1,0,0,0
27176.242,0,1,0,0,0
27216.286,0,1,0,0,0
27256.259,0,1,0,0,0
27296.27,0,1,0,0,0
27336.218,0,1,0,0,0
27376.253,0,1,0,0,0
27416.283,0,1,0,0,0
27456.276,0,1,0,0,0
27496.297,0,1,0,0,0
27536.281,0,1,0,0,0
27576.216,0,1,0,0,0
27616.244,0,1,0,0,0
27656.284,0,1,0,0,0
27696.292,0,1,0,0,0
27736.28,0,1,0,0,0
27776.248,0,1,0,0,0
27816.249,0,1,0,0,0
27856.247,0,1,0,0,0
27896.279,0,1,0,0,0
27936.313,0,1,0,0,0
27976.291,0,1,0,0,0
28016.221,0,1,0,0,0
28056.248,0,1,0,0,0
28096.238,0,1,0,0,0
28136.279,0,1,0,0,0
28176.284,0,1,0,0,0
28216.286,0,1,0,0,0
28256.215,0,1,0,0,0
28296.251,0,1,0,0,0
28336.275,0,1,0,0,0
28376.259,0,1,0,0,0
28416.324,0,1,0,0,0
28456.268,0,1,0,0,0
28496.241,0,1,0,0,0
28536.253,0,1,0,0,0
28576.285,0,1,0,0,0
28616.292,0,1,0,0,0
28656.295,0,1,0,0,0
28696.216,0,1,0,0,0
28736.246,0,1,0,0,0
28776.242,0,1,0,0,0
28816.285,0,1,0,0,0
28856.302,0,1,0,0,0
28896.283,0,1,0,0,0
28936.235,0,1,0,0,0
28976.247,0,1,0,0,0
29016.227,0,1,0,0,0
29056.284,0,1,0,0,0
29096.274,0,1,0,0,0
29136.26,0,1,0,0,0
29176.222,0,1,0,0,0
29216.242,0,1,0,0,0
29256.28,0,1,0,0,0
29296.256,0,1,0,0,0
29336.294,0,1,0,0,0
29376.25,0,1,0,0,0
29416.245,0,1,0,0,0
29456.245,0,1,0,0,0
29496.272,0,1,0,0,0
29536.28,0,1,0,0,0
29576.279,0,1,0,0,0
29616.214,0,1,0,0,0
29656.251,0,1,0,0,0
29696.24,0,1,0,0,0
29736.279,0,1,0,0,0
29776.285,0,1,0,0,0
29816.268,0,1,0,0,0
29856.223,0,1,0,0,0
29896.244,0,1,0,0,0
29936.217,0,1,0,0,0
29976.289,0,1,0,0,0
30016.234,0,1,0,0,0
30056.278,0,1,0,0,0
30096.205,0,1,0,0,0
30136.241,0,1,0,0,0
30176.267,0,1,0,0,0
30216.237,0,1,0,0,0
30256.253,0,1,0,0,0
30296.226,0,1,0,0,0
30336.203,0,1,0,0,0
30376.239,0,1,0,0,0
30416.278,0,1,0,0,0
30456.287,0,1,0,0,0
30496.283,0,1,0,0,0
30536.208,0,1,0,0,0
30576.241,0,1,0,0,0
30616.229,0,1,0,0,0
30656.274,0,1,0,0,0
30696.288,0,1,0,0,0
30736.26,0,1,0,0,0
30776.223,0,1,0,0,0
30816.241,0,1,0,0,0
30856.255,0,1,0,0,0
30896.251,0,1,0,0,0
30936.316,0,1,0,0,0
30976.252,0,1,0,0,0
31016.229,0,1,0,0,0
31056.239,0,1,0,0,0
31096.259,0,1,0,0,0
31136.285,0,1,0,0,0
31176.288,0,1,0,0,0
31216.213,0,1,0,0,0
31256.231,0,1,0,0,0
31296.244,0,1,0,0,0
31336.268,0,1,0,0,0
31376.28,0,1,0,0,0
31416.271,0,1,0,0,0
31456.208,0,1,0,0,0
31496.261,0,1,0,0,0
31536.226,0,1,0,0,0
31576.27,0,1,0,0,0
31616.275,0,1,0,0,0
31656.248,0,1,0,0,0
31696.209,0,1,0,0,0
31736.232,0,1,0,0,0
31776.28,0,1,0,0,0
31816.247,0,1,0,0,0
31856.326,0,1,0,0,0
31896.242,0,1,0,0,0
31936.208,0,1,0,0,0
31976.237,0,1,0,0,0
32016.271,0,1,0,0,0
32056.256,0,1,0,0,0
32096.269,0,1,0,0,0
32136.202,0,1,0,0,0
32176.23,0,1,0,0,0
32216.25,0,1,0,0,0
32256.276,0,1,0,0,0
32296.271,0,1,0,0,0
32336.273,0,1,0,0,0
32376.207,0,1,0,0,0
32416.234,0,1,0,0,0
32456.223,0,1,0,0,0
32496.26,0,1,0,0,0
32536.247,0,1,0,0,0
32576.246,0,1,0,0,0
32616.212,0,1,0,0,0
32656.239,0,1,0,0,0
32696.28,0,1,0,0,0
32736.246,0,1,0,0,0
32776.279,0,1,0,0,0
32816.242,0,1,0,0,0
32856.234,0,1,0,0,0
32896.256,0,1,0,0,0
32936.274,0,1,0,0,0
32976.309,0,1,0,0,0
33016.28,0,1,0,0,0
33056.209,0,1,0,0,0
33096.229,0,1,0,0,0
33136.23,0,1,0,0,0
33176.281,0,1,0,0,0
33216.285,0,1,0,0,0
33256.248,0,1,0,0,0
33296.216,0,1,0,0,0
33336.27,0,1,0,0,0
33376.217,0,1,0,0,0
33416.27,0,1,0,0,0
33456.26,0,1,0,0,0
33496.25,0,1,0,0,0
33536.211,0,1,0,0,0
33576.237,0,1,0,0,0
33616.268,0,1,0,0,0
33656.284,0,1,0,0,0
33696.287,0,1,0,0,0
33736.238,0,1,0,0,0
33776.215,0,1,0,0,0
33816.24,0,1,0,0,0
33856.291,0,1,0,0,0
33896.29,0,1,0,0,0
33936.267,0,1,0,0,0
33976.222,0,1,0,0,0
34016.235,0,1,0,0,0
34056.23,0,1,0,0,0
34096.27,0,1,0,0,0
34136.284,0,1,0,0,0
34176.286,0,1,0,0,0
34216.224,0,1,0,0,0
34256.234,0,1,0,0,0
34296.255,0,1,0,0,0
34336.267,0,1,0,0,0
34376.304,0,1,0,0,0
34416.246,0,1,0,0,0
34456.247,0,1,0,0,0
34496.238,0,1,0,0,0
34536.27,0,1,0,0,0
34576.264,0,1,0,0,0
34616.274,0,1,0,0,0
34656.211,0,1,0,0,0
34696.227,0,1,0,0,0
34736.349,0,1,0,0,0
34776.264,0,1,0,0,0
34816.278,0,1,0,0,0
34856.268,0,1,0,0,0
34896.214,0,1,0,0,0
34936.243,0,1,0,0,0
34976.225,0,1,0,0,0
35016.273,0,1,0,0,0
35056.278,0,1,0,0,0
35096.273,0,1,0,0,0
35136.206,0,1,0,0,0
35176.25,0,1,0,0,0
35216.246,0,1,0,0,0
35256.251,0,1,0,0,0
35296.294,0,1,0,0,0
35336.267,0,1,0,0,0
35376.202,0,1,0,0,0
35416.24,0,1,0,0,0
35456.259,0,1,0,0,0
35496.285,0,1,0,0,0
35536.278,0,1,0,0,0
35576.261,0,1,0,0,0
35616.244,0,1,0,0,0
35656.256,0,1,0,0,0
35696.301,0,1,0,0,0
35736.293,0,1,0,0,0
35776.269,0,1,0,0,0
35816.216,0,1,0,0,0
35856.255,0,1,0,0,0
35896.221,0,1,0,0,0
35936.298,0,1,0,0,0
35976.271,0,1,0,0,0
36016.254,0,1,0,0,0
36056.216,0,1,0,0,0
36096.235,0,1,0,0,0
36136.257,0,1,0,0,0
36176.244,0,1,0,0,0
36216.283,0,1,0,0,0
36256.235,0,1,0,0,0
36296.242,0,1,0,0,0
36336.242,0,1,0,0,0
36376.269,0,1,0,0,0
36416.288,0,1,0,0,0
36456.271,0,1,0,0,0
36496.203,0,1,0,0,0
36536.245,0,1,0,0,0
36576.24,0,1,0,0,0
36616.273,0,1,0,0,0
36656.301,0,1,0,0,0
36696.273,0,1,0,0,0
36736.211,0,1,0,0,0
36776.236,0,1,0,0,0
36816.224,0,1,0,0,0
36856.263,0,1,0,0,0
36896.27,0,1,0,0,0
36936.258,0,1,0,0,0
36976.214,0,1,0,0,0
37016.244,0,1,0,0,0
37056.294,0,1,0,0,0
37096.254,0,1,0,0,0
37136.266,0,1,0,0,0
37176.254,0,1,0,0,0
37216.218,0,1,0,0,0
37256.255,0,1,0,0,0
37296.276,0,1,0,0,0
37336.317,0,1,0,0,0
37376.271,0,1,0,0,0
37416.224,0,1,0,0,0
37456.234,0,1,0,0,0
37496.238,0,1,0,0,0
37536.267,0,1,0,0,0
37576.279,0,1,0,0,0
37616.291,0,1,0,0,0
37656.224,0,1,0,0,0
37696.247,0,1,0,0,0
37736.207,0,1,0,0,0
37776.258,0,1,0,0,0
37816.317,0,1,0,0,0
37856.257,0,1,0,0,0
37896.207,0,1,0,0,0
37936.241,0,1,0,0,0
37976.295,0,1,0,0,0
38016.288,0,1,0,0,0
38056.326,0,1,0,0,0
38096.224,0,1,0,0,0
38136.238,0,1,0,0,0
38176.24,0,1,0,0,0
38216.261,0,1,0,0,0
38256.281,0,1,0,0,0
38296.295,0,1,0,0,0
38336.208,0,1,0,0,0
38376.239,0,1,0,0,0
38416.234,0,1,0,0,0
38456.272,0,1,0,0,0
38496.279,0,1,0,0,0
38536.266,0,1,0,0,0
38576.213,0,1,0,0,0
38616.244,0,1,0,0,0
38656.242,0,1,0,0,0
38696.261,0,1,0,0,0
38736.291,0,1,0,0,0
38776.26,0,1,0,0,0
38816.211,0,1,0,0,0
38856.238,0,1,0,0,0
38896.265,0,1,0,0,0
38936.293,0,1,0,0,0
38976.272,0,1,0,0,0
39016.264,0,1,0,0,0
39056.244,0,1,0,0,0
39096.239,0,1,0,0,0
39136.272,0,1,0,0,0
39176.263,0,1,0,0,0
39216.264,0,1,0,0,0
39256.211,0,1,0,0,0
39296.264,0,1,0,0,0
39336.223,0,1,0,0,0
39376.265,0,1,0,0,0
39416.249,0,1,0,0,0
39456.243,0,1,0,0,0
39496.209,0,1,0,0,0
39536.243,0,1,0,0,0
39576.276,0,1,0,0,0
39616.245,0,1,0,0,0
39656.292,0,1,0,0,0
39696.245,0,1,0,0,0
39736.204,0,1,0,0,0
39776.231,0,1,0,0,0
39816.263,0,1,0,0,0
39856.284,0,1,0,0,0
39896.288,0,1,0,0,0
39936.202,0,1,0,0,0
39976.235,0,1,0,0,0
40016.235,0,1,0,0,0
40056.271,0,1,0,0,0
40096.283,0,1,0,0,0
40136.283,0,1,0,0,0
40176.212,0,1,0,0,0
40216.232,0,1,0,0,0
40256.233,0,1,0,0,0
40296.265,0,1,0,0,0
40336.276,0,1,0,0,0
40376.237,0,1,0,0,0
40416.213,0,1,0,0,0
40456.233,0,1,0,0,0
40496.244,0,1,0,0,0
40536.29,0,1,0,0,0
40576.285,0,1,0,0,0
40616.239,0,1,0,0,0
40656.24,0,1,0,0,0
40696.232,0,1,0,0,0
40736.276,0,1,0,0,0
40776.282,0,1,0,0,0
40816.273,0,1,0,0,0
40856.228,0,1,0,0,0
40896.233,0,1,0,0,0
40936.247,0,1,0,0,0
40976.262,0,1,0,0,0
41016.279,0,1,0,0,0
41056.264,0,1,0,0,0
41096.206,0,1,0,0,0
41136.249,0,1,0,0,0
41176.21,0,1,0,0,0
41216.256,0,1,0,0,0
41256.282,0,1,0,0,0
41296.239,0,1,0,0,0
41336.202,0,1,0,0,0
41376.237,0,1,0,0,0
41416.27,0,1,0,0,0
41456.284,0,1,0,0,0
41496.293,0,1,0,0,0
41536.223,0,1,0,0,0
41576.202,0,1,0,0,0
41616.24,0,1,0,0,0
41656.285,0,1,0,0,0
41696.257,0,1,0,0,0
41736.265,0,1,0,0,0
41776.211,0,1,0,0,0
41816.237,0,1,0,0,0
41856.223,0,1,0,0,0
41896.264,0,1,0,0,0
41936.253,0,1,0,0,0
41976.249,0,1,0,0,0
42016.209,0,1,0,0,0
42056.254,0,1,0,0,0
42096.208,0,1,0,0,0
42136.264,0,1,0,0,0
42176.285,0,1,0,0,0
42216.24,0,1,0,0,0
42256.232,0,1,0,0,0
42296.244,0,1,0,0,0
42336.271,0,1,0,0,0
42376.28,0,1,0,0,0
42416.311,0,1,0,0,0
42456.212,0,1,0,0,0
42496.231,0,1,0,0,0
42536.234,0,1,0,0,0
42576.266,0,1,0,0,0
42616.284,0,1,0,0,0
42656.265,0,1,0,0,0
42696.219,0,1,0,0,0
42736.24,0,1,0,0,0
42776.241,0,1,0,0,0
42816.274,0,1,0,0,0
42856.267,0,1,0,0,0
42896.236,0,1,0,0,0
42936.214,0,1,0,0,0
42976.233,0,1,0,0,0
43016.24,0,1,0,0,0
43056.276,0,1,0,0,0
43096.289,0,1,0,0,0
43136.259,0,1,0,0,0
43176.206,0,1,0,0,0
43216.24,0,1,0,0,0
43256.26,0,1,0,0,0
43296.285,0,1,0,0,0
43336.264,0,1,0,0,0
43376.209,0,1,0,0,0
43416.238,0,1,0,0,0
43456.233,0,1,0,0,0
43496.314,0,1,0,0,0
43536.288,0,1,0,0,0
43576.263,0,1,0,0,0
43616.204,0,1,0,0,0
43656.236,0,1,0,0,0
43696.215,0,1,0,0,0
43736.278,0,1,0,0,0
43776.259,0,1,0,0,0
43816.238,0,1,0,0,0
43856.209,0,1,0,0,0
43896.237,0,1,0,0,0
43936.289,0,1,0,0,0
43976.257,0,1,0,0,0
44016.303,0,1,0,0,0
44056.236,0,1,0,0,0
44096.201,0,1,0,0,0
44136.24,0,1,0,0,0
44176.269,0,1,0,0,0
44216.238,0,1,0,0,0
44256.266,0,1,0,0,0
44296.205,0,1,0,0,0
44336.239,0,1,0,0,0
44376.241,0,1,0,0,0
44416.271,0,1,0,0,0
44456.271,0,1,0,0,0
44496.257,0,1,0,0,0
44536.212,0,1,0,0,0
44576.238,0,1,0,0,0
44616.217,0,1,0,0,0
44656.263,0,1,0,0,0
44696.272,0,1,0,0,0
44736.253,0,1,0,0,0
44776.204,0,1,0,0,0
44816.243,0,1,0,0,0
44856.242,0,1,0,0,0
44896.302,0,1,0,0,0
44936.287,0,1,0,0,0
44976.258,0,1,0,0,0
45016.234,0,1,0,0,0
45056.232,0,1,0,0,0
45096.267,0,1,0,0,0
45136.282,0,1,0,0,0
45176.267,0,1,0,0,0
45216.226,0,1,0,0,0
45256.235,0,1,0,0,0
45296.241,0,1,0,0,0
45336.27,0,1,0,0,0
45376.271,0,1,0,0,0
45416.254,0,1,0,0,0
45456.212,0,1,0,0,0
45496.234,0,1,0,0,0
45536.297,0,1,0,0,0
45576.274,0,1,0,0,0
45616.299,0,1,0,0,0
45656.247,0,1,0,0,0
45696.21,0,1,0,0,0
45736.237,0,1,0,0,0
45776.271,0,1,0,0,0
45816.302,0,1,0,0,0
45856.276,0,1,0,0,0
45896.226,0,1,0,0,0
45936.236,0,1,0,0,0
45976.238,0,1,0,0,0
46016.266,0,1,0,0,0
46056.294,0,1,0,0,0
46096.281,0,1,0,0,0
46136.206,0,1,0,0,0
46176.245,0,1,0,0,0
46216.234,0,1,0,0,0
46256.26,0,1,0,0,0
46296.282,0,1,0,0,0
46336.25,0,1,0,0,0
46376.209,0,1,0,0,0
46416.23,0,1,0,0,0
46456.238,0,1,0,0,0
46496.255,0,1,0,0,0
46536.269,0,1,0,0,0
46576.289,0,1,0,0,0
46616.209,0,1,0,0,0
46656.254,0,1,0,0,0
46696.269,0,1,0,0,0
46736.258,0,1,0,0,0
46776.273,0,1,0,0,0
46816.256,0,1,0,0,0
46856.249,0,1,0,0,0
46896.24,0,1,0,0,0
46936.292,0,1,0,0,0
46976.28,0,1,0,0,0
47016.283,0,1,0,0,0
47056.223,0,1,0,0,0
47096.237,0,1,0,0,0
47136.222,0,1,0,0,0
47176.282,0,1,0,0,0
47216.265,0,1,0,0,0
47256.268,0,1,0,0,0
47296.208,0,1,0,0,0
47336.236,0,1,0,0,0
47376.274,0,1,0,0,0
47416.249,0,1,0,0,0
47456.299,0,1,0,0,0
47496.276,0,1,0,0,0
47536.222,0,1,0,0,0
47576.235,0,1,0,0,0
47616.262,0,1,0,0,0
47656.281,0,1,0,0,0
47696.267,0,1,0,0,0
47736.211,0,1,0,0,0
47776.229,0,1,0,0,0
47816.244,0,1,0,0,0
47856.277,0,1,0,0,0
47896.282,0,1,0,0,0
47936.261,0,1,0,0,0
47976.201,0,1,0,0,0
48016.239,0,1,0,0,0
48056.223,0,1,0,0,0
48096.267,0,1,0,0,0
48136.32,0,1,0,0,0
48176.25,0,1,0,0,0
48216.204,0,1,0,0,0
48256.23,0,1,0,0,0
48296.275,0,1,0,0,0
48336.282,0,1,0,0,0
48376.273,0,1,0,0,0
48416.242,0,1,0,0,0
48456.237,0,1,0,0,0
48496.238,0,1,0,0,0
48536.266,0,1,0,0,0
48576.303,0,1,0,0,0
48616.263,0,1,0,0,0
48656.205,0,1,0,0,0
48696.235,0,1,0,0,0
48736.242,0,1,0,0,0
48776.279,0,1,0,0,0
48816.255,0,1,0,0,0
48856.265,0,1,0,0,0
48896.211,0,1,0,0,0
48936.254,0,1,0,0,0
48976.205,0,1,0,0,0
49016.266,0,1,0,0,0
49056.275,0,1,0,0,0
49096.245,0,1,0,0,0
49136.274,0,1,0,0,0
49176.249,0,1,0,0,0
49216.256,0,1,0,0,0
49256.283,0,1,0,0,0
49296.291,0,1,0,0,0
49336.217,0,1,0,0,0
49376.227,0,1,0,0,0
49416.246,0,1,0,0,0
49456.286,0,1,0,0,0
49496.28,0,1,0,0,0
49536.318,0,1,0,0,0
49576.203,0,1,0,0,0
49616.238,0,1,0,0,0
49656.225,0,1,0,0,0
49696.269,0,1,0,0,0
49736.288,0,1,0,0,0
49776.24,0,1,0,0,0
49816.209,0,1,0,0,0
49856.236,0,1,0,0,0
49896.209,0,1,0,0,0
49936.25,0,1,0,0,0
49976.314,0,1,0,0,0
50016.267,0,1,0,0,0
50056.212,0,1,0,0,0
50096.24,0,1,0,0,0
50136.276,0,1,0,0,0
50176.281,0,1,0,0,0
50216.268,0,1,0,0,0
50256.209,0,1,0,0,0
50296.235,0,1,0,0,0
50336.245,0,1,0,0,0
50376.262,0,1,0,0,0
50416.3,0,1,0,0,0
50456.275,0,1,0,0,0
50496.207,0,1,0,0,0
50536.241,0,1,0,0,0
50576.229,0,1,0,0,0
50616.255,0,1,0,0,0
50656.272,0,1,0,0,0
50696.25,0,1,0,0,0
50736.211,0,1,0,0,0
50776.229,0,1,0,0,0
50816.266,0,1,0,0,0
50856.246,0,1,0,0,0
50896.312,0,1,0,0,0
50936.247,0,1,0,0,0
50976.214,0,1,0,0,0
51016.238,0,1,0,0,0
51056.267,0,1,0,0,0
51096.255,0,1,0,0,0
51136.275,0,1,0,0,0
51176.208,0,1,0,0,0
51216.231,0,1,0,0,0
51256.253,0,1,0,0,0
51296.271,0,1,0,0,0
51336.271,0,1,0,0,0
51376.268,0,1,0,0,0
51416.214,0,1,0,0,0
51456.237,0,1,0,0,0
51496.227,0,1,0,0,0
51536.274,0,1,0,0,0
51576.247,0,1,0,0,0
51616.26,0,1,0,0,0
51656.212,0,1,0,0,0
51696.259,0,1,0,0,0
51736.274,0,1,0,0,0
51776.238,0,1,0,0,0
51816.265,0,1,0,0,0
51856.243,0,1,0,0,0
51896.206,0,1,0,0,0
51936.246,0,1,0,0,0
51976.263,0,1,0,0,0
52016.309,0,1,0,0,0
52056.263,0,1,0,0,0
52096.21,0,1,0,0,0
52136.236,0,1,0,0,0
52176.24,0,1,0,0,0
52216.27,0,1,0,0,0
52256.286,0,1,0,0,0
52296.261,0,1,0,0,0
52336.204,0,1,0,0,0
52376.25,0,1,0,0,0
52416.217,0,1,0,0,0
52456.264,0,1,0,0,0
52496.284,0,1,0,0,0
52536.281,0,1,0,0,0
52576.213,0,1,0,0,0
52616.243,0,1,0,0,0
52656.264,0,1,0,0,0
52696.305,0,1,0,0,0
52736.284,0,1,0,0,0
52776.24,0,1,0,0,0
52816.233,0,1,0,0,0
52856.237,0,1,0,0,0
52896.269,0,1,0,0,0
52936.28,0,1,0,0,0
52976.263,0,1,0,0,0
53016.208,0,1,0,0,0
53056.234,0,1,0,0,0
53096.239,0,1,0,0,0
53136.286,0,1,0,0,0
53176.278,0,1,0,0,0
53216.256,0,1,0,0,0
53256.202,0,1,0,0,0
53296.263,0,1,0,0,0
53336.227,0,1,0,0,0
53376.249,0,1,0,0,0
53416.295,0,1,0,0,0
53456.242,0,1,0,0,0
53496.206,0,1,0,0,0
53536.244,0,1,0,0,0
53576.274,0,1,0,0,0
53616.257,0,1,0,0,0
53656.29,0,1,0,0,0
53696.22,0,1,0,0,0
53736.235,0,1,0,0,0
53776.231,0,1,0,0,0
53816.29,0,1,0,0,0
53856.259,0,1,0,0,0
53896.273,0,1,0,0,0
53936.204,0,1,0,0,0
53976.24,0,1,0,0,0
54016.221,0,1,0,0,0
54056.266,0,1,0,0,0
54096.257,0,1,0,0,0
54136.256,0,1,0,0,0
54176.217,0,1,0,0,0
54216.235,0,1,0,0,0
54256.284,0,1,0,0,0
54296.243,0,1,0,0,0
54336.314,0,1,0,0,0
54376.243,0,1,0,0,0
54416.213,0,1,0,0,0
54456.253,0,1,0,0,0
54496.266,0,1,0,0,0
54536.286,0,1,0,0,0
54576.272,0,1,0,0,0
54616.254,0,1,0,0,0
54656.231,0,1,0,0,0
54696.249,0,1,0,0,0
54736.264,0,1,0,0,0
54776.278,0,1,0,0,0
54816.275,0,1,0,0,0
54856.208,0,1,0,0,0
54896.246,0,1,0,0,0
54936.227,0,1,0,0,0
54976.259,0,1,0,0,0
55016.266,0,1,0,0,0
55056.263,0,1,0,0,0
55096.208,0,1,0,0,0
55136.247,0,1,0,0,0
55176.289,0,1,0,0,0
55216.247,0,1,0,0,0
55256.276,0,1,0,0,0
55296.264,0,1,0,0,0
55336.242,0,1,0,0,0
55376.234,0,1,0,0,0
55416.263,0,1,0,0,0
55456.262,0,1,0,0,0
55496.265,0,1,0,0,0
55536.207,0,1,0,0,0
55576.234,0,1,0,0,0
55616.235,0,1,0,0,0
55656.262,0,1,0,0,0
55696.291,0,1,0,0,0
55736.266,0,1,0,0,0
55776.206,0,1,0,0,0
55816.256,0,1,0,0,0
55856.205,0,1,0,0,0
55896.265,0,1,0,0,0
55936.291,0,1,0,0,0
55976.248,0,1,0,0,0
56016.208,0,1,0,0,0
56056.239,0,1,0,0,0
56096.269,0,1,0,0,0
56136.256,0,1,0,0,0
56176.267,0,1,0,0,0
56216.237,0,1,0,0,0
56256.216,0,1,0,0,0
56296.229,0,1,0,0,0
56336.284,0,1,0,0,0
56376.254,0,1,0,0,0
56416.265,0,1,0,0,0
56456.203,0,1,0,0,0
56496.234,0,1,0,0,0
56536.237,0,1,0,0,0
56576.27,0,1,0,0,0
56616.285,0,1,0,0,0
56656.25,0,1,0,0,0
56696.221,0,1,0,0,0
56736.238,0,1,0,0,0
56776.279,0,1,0,0,0
56816.286,0,1,0,0,0
56856.295,0,1,0,0,0
56896.27,0,1,0,0,0
56936.234,0,1,0,0,0
56976.228,0,1,0,0,0
57016.264,0,1,0,0,0
57056.284,0,1,0,0,0
57096.269,0,1,0,0,0
57136.232,0,1,0,0,0
57176.247,0,1,0,0,0
57216.262,0,1,0,0,0
57256.263,0,1,0,0,0
57296.301,0,1,0,0,0
57336.267,0,1,0,0,0
57376.201,0,1,0,0,0
57416.238,0,1,0,0,0
57456.228,0,1,0,0,0
57496.265,0,1,0,0,0
57536.281,0,1,0,0,0
57576.274,0,1,0,0,0
57616.201,0,1,0,0,0
57656.246,0,1,0,0,0
57696.251,0,1,0,0,0
57736.249,0,1,0,0,0
57776.28,0,1,0,0,0
57816.248,0,1,0,0,0
57856.199,0,1,0,0,0
57896.242,0,1,0,0,0
57936.272,0,1,0,0,0
57976.242,0,1,0,0,0
58016.272,0,1,0,0,0
58056.237,0,1,0,0,0
58096.233,0,1,0,0,0
58136.235,0,1,0,0,0
58176.29,0,1,0,0,0
58216.282,0,1,0,0,0
58256.261,0,1,0,0,0
58296.217,0,1,0,0,0
58336.239,0,1,0,0,0
58376.217,0,1,0,0,0
58416.265,0,1,0,0,0
58456.256,0,1,0,0,0
58496.258,0,1,0,0,0
58536.22,0,1,0,0,0
58576.243,0,1,0,0,0
58616.283,0,1,0,0,0
58656.241,0,1,0,0,0
58696.269,0,1,0,0,0
58736.244,0,1,0,0,0
58776.204,0,1,0,0,0
58816.247,0,1,0,0,0
58856.266,0,1,0,0,0
58896.272,0,1,0,0,0
58936.288,0,1,0,0,0
58976.209,0,1,0,0,0
59016.232,0,1,0,0,0
59056.245,0,1,0,0,0
59096.264,0,1,0,0,0
59136.28,0,1,0,0,0
59176.285,0,1,0,0,0
59216.205,0,1,0,0,0
59256.245,0,1,0,0,0
59296.215,0,1,0,0,0
59336.283,0,1,0,0,0
59376.262,0,1,0,0,0
59416.283,0,1,0,0,0
59456.208,0,1,0,0,0
59496.24,0,1,0,0,0
59536.284,0,1,0,0,0
59576.243,0,1,0,0,0
59616.306,0,1,0,0,0
59656.233,0,1,0,0,0
59696.221,0,1,0,0,0
59736.234,0,1,0,0,0
59776.266,0,1,0,0,0
59816.287,0,1,0,0,0
59856.264,0,1,0,0,0
59896.202,0,1,0,0,0
59936.24,0,1,0,0,0
59976.232,0,1,0,0,0
60016.257,0,1,0,0,0
60056.28,0,1,0,0,0
60096.259,0,1,0,0,0
60136.215,0,1,0,0,0
60176.241,0,1,0,0,0
60216.207,0,1,0,0,0
60256.261,0,1,0,0,0
60296.29,0,1,0,0,0
60336.246,0,1,0,0,0
60376.209,0,1,0,0,0
60416.241,0,1,0,0,0
60456.269,0,1,0,0,0
60496.302,0,1,0,0,0
60536.287,0,1,0,0,0
60576.214,0,1,0,0,0
60616.214,0,1,0,0,0
60656.239,0,1,0,0,0
60696.257,0,1,0,0,0
60736.258,0,1,0,0,0
60776.288,0,1,0,0,0
60816.206,0,1,0,0,0
60856.249,0,1,0,0,0
60896.235,0,1,0,0,0
60936.281,0,1,0,0,0
60976.247,0,1,0,0,0
61016.259,0,1,0,0,0
61056.209,0,1,0,0,0
61096.241,0,1,0,0,0
61136.266,0,1,0,0,0
61176.261,0,1,0,0,0
61216.294,0,1,0,0,0
61256.263,0,1,0,0,0
61296.213,0,1,0,0,0
61336.246,0,1,0,0,0
61376.26,0,1,0,0,0
61416.259,0,1,0,0,0
61456.292,0,1,0,0,0
61496.224,0,1,0,0,0
61536.236,0,1,0,0,0
61576.241,0,1,0,0,0
61616.269,0,1,0,0,0
61656.281,0,1,0,0,0
61696.286,0,1,0,0,0
61736.208,0,1,0,0,0
61776.243,0,1,0,0,0
61816.223,0,1,0,0,0
61856.268,0,1,0,0,0
61896.271,0,1,0,0,0
61936.246,0,1,0,0,0
61976.209,0,1,0,0,0
62016.239,0,1,0,0,0
62056.268,0,1,0,0,0
62096.247,0,1,0,0,0
62136.306,0,1,0,0,0
62176.251,0,1,0,0,0
62216.207,0,1,0,0,0
62256.28,0,1,0,0,0
62296.261,0,1,0,0,0
62336.285,0,1,0,0,0
62376.274,0,1,0,0,0
62416.247,0,1,0,0,0
62456.255,0,1,0,0,0
62496.238,0,1,0,0,0
62536.272,0,1,0,0,0
62576.286,0,1,0,0,0
62616.294,0,1,0,0,0
62656.209,0,1,0,0,0
62696.254,0,1,0,0,0
62736.215,0,1,0,0,0
62776.256,0,1,0,0,0
62816.286,0,1,0,0,0
62856.233,0,1,0,0,0
62896.212,0,1,0,0,0
62936.237,0,1,0,0,0
62976.27,0,1,0,0,0
63016.259,0,1,0,0,0
63056.281,0,1,0,0,0
63096.254,0,1,0,0,0
63136.2,0,1,0,0,0
63176.248,0,1,0,0,0
63216.265,0,1,0,0,0
63256.254,0,1,0,0,0
63296.282,0,1,0,0,0
63336.204,0,1,0,0,0
63376.249,0,1,0,0,0
63416.233,0,1,0,0,0
63456.28,0,1,0,0,0
63496.251,0,1,0,0,0
63536.287,0,1,0,0,0
63576.207,0,1,0,0,0
63616.255,0,1,0,0,0
63656.218,0,1,0,0,0
63696.254,0,1,0,0,0
63736.304,0,1,0,0,0
63776.236,0,1,0,0,0
63816.212,0,1,0,0,0
63856.239,0,1,0,0,0
63896.271,0,1,0,0,0
63936.285,0,1,0,0,0
63976.278,0,1,0,0,0
64016.234,0,1,0,0,0
64056.219,0,1,0,0,0
64096.236,0,1,0,0,0
64136.269,0,1,0,0,0
64176.281,0,1,0,0,0
64216.291,0,1,0,0,0
64256.203,0,1,0,0,0
64296.24,0,1,0,0,0
64336.263,0,1,0,0,0
64376.264,0,1,0,0,0
64416.276,0,1,0,0,0
64456.262,0,1,0,0,0
64496.237,0,1,0,0,0
64536.247,0,1,0,0,0
64576.276,0,1,0,0,0
64616.26,0,1,0,0,0
64656.288,0,1,0,0,0
64696.25,0,1,0,0,0
64736.212,0,1,0,0,0
64776.231,0,1,0,0,0
64816.267,0,1,0,0,0
64856.255,0,1,0,0,0
64896.271,0,1,0,0,0
64936.213,0,1,0,0,0
64976.242,0,1,0,0,0
65016.252,0,1,0,0,0
65056.266,0,1,0,0,0
65096.293,0,1,0,0,0
65136.26,0,1,0,0,0
65176.222,0,1,0,0,0
65216.231,0,1,0,0,0
65256.229,0,1,0,0,0
65296.273,0,1,0,0,0
65336.271,0,1,0,0,0
65376.236,0,1,0,0,0
65416.215,0,1,0,0,0
65456.26,0,1,0,0,0
65496.234,0,1,0,0,0
65536.269,0,1,0,0,0
65576.301,0,1,0,0,0
65616.243,0,1,0,0,0
65656.201,0,1,0,0,0
65696.238,0,1,0,0,0
65736.265,0,1,0,0,0
65776.251,0,1,0,0,0
65816.269,0,1,0,0,0
65856.208,0,1,0,0,0
65896.235,0,1,0,0,0
65936.243,0,1,0,0,0
65976.3,0,1,0,0,0
66016.275,0,1,0,0,0
66056.315,0,1,0,0,0
66096.203,0,1,0,0,0
66136.24,0,1,0,0,0
66176.216,0,1,0,0,0
66216.27,0,1,0,0,0
66256.259,0,1,0,0,0
66296.277,0,1,0,0,0
66336.211,0,1,0,0,0
66376.236,0,1,0,0,0
66416.243,0,1,0,0,0
66456.289,0,1,0,0,0
66496.281,0,1,0,0,0
66536.26,0,1,0,0,0
66576.202,0,1,0,0,0
66616.229,0,1,0,0,0
66656.26,0,1,0,0,0
66696.287,0,1,0,0,0
66736.265,0,1,0,0,0
66776.261,0,1,0,0,0
66816.241,0,1,0,0,0
66856.23,0,1,0,0,0
66896.271,0,1,0,0,0
66936.298,0,1,0,0,0
66976.266,0,1,0,0,0
67016.202,0,1,0,0,0
67056.247,0,1,0,0,0
67096.242,0,1,0,0,0
67136.262,0,1,0,0,0
67176.316,0,1,0,0,0
67216.237,0,1,0,0,0
67256.201,0,1,0,0,0
67296.25,0,1,0,0,0
67336.274,0,1,0,0,0
67376.265,0,1,0,0,0
67416.288,0,1,0,0,0
67456.254,0,1,0,0,0
67496.212,0,1,0,0,0
67536.234,0,1,0,0,0
67576.27,0,1,0,0,0
67616.285,0,1,0,0,0
67656.263,0,1,0,0,0
67696.21,0,1,0,0,0
67736.233,0,1,0,0,0
67776.231,0,1,0,0,0
67816.268,0,1,0,0,0
67856.253,0,1,0,0,0
67896.251,0,1,0,0,0
67936.213,0,1,0,0,0
67976.257,0,1,0,0,0
68016.21,0,1,0,0,0
68056.269,0,1,0,0,0
68096.3,0,1,0,0,0
68136.244,0,1,0,0,0
68176.206,0,1,0,0,0
68216.23,0,1,0,0,0
68256.287,0,1,0,0,0
68296.259,0,1,0,0,0
68336.308,0,1,0,0,0
68376.213,0,1,0,0,0
68416.245,0,1,0,0,0
68456.23,0,1,0,0,0
68496.264,0,1,0,0,0
68536.289,0,1,0,0,0
68576.284,0,1,0,0,0
68616.237,0,1,0,0,0
68656.238,0,1,0,0,0
68696.236,0,1,0,0,0
68736.265,0,1,0,0,0
68776.274,0,1,0,0,0
68816.283,0,1,0,0,0
68856.202,0,1,0,0,0
68896.255,0,1,0,0,0
68936.252,0,1,0,0,0
68976.253,0,1,0,0,0
69016.284,0,1,0,0,0
69056.25,0,1,0,0,0
69096.203,0,1,0,0,0
69136.237,0,1,0,0,0
69176.261,0,1,0,0,0
69216.247,0,1,0,0,0
69256.288,0,1,0,0,0
69296.237,0,1,0,0,0
69336.252,0,1,0,0,0
69376.232,0,1,0,0,0
69416.301,0,1,0,0,0
69456.284,0,1,0,0,0
69496.274,0,1,0,0,0
69536.211,0,1,0,0,0
69576.238,0,1,0,0,0
69616.219,0,1,0,0,0
69656.284,0,1,0,0,0
69696.296,0,1,0,0,0
69736.252,0,1,0,0,0
69776.207,0,1,0,0,0
69816.237,0,1,0,0,0
69856.229,0,1,0,0,0
69896.259,0,1,0,0,0
69936.292,0,1,0,0,0
69976.265,0,1,0,0,0
70016.22,0,1,0,0,0
70056.246,0,1,0,0,0
70096.271,0,1,0,0,0
70136.259,0,1,0,0,0
70176.272,0,1,0,0,0
70216.233,0,1,0,0,0
70256.245,0,1,0,0,0
70296.238,0,1,0,0,0
70336.305,0,1,0,0,0
70376.258,0,1,0,0,0
70416.281,0,1,0,0,0
70456.208,0,1,0,0,0
70496.235,0,1,0,0,0
70536.224,0,1,0,0,0
70576.273,0,1,0,0,0
70616.256,0,1,0,0,0
70656.256,0,1,0,0,0
70696.224,0,1,0,0,0
70736.24,0,1,0,0,0
70776.275,0,1,0,0,0
70816.265,0,1,0,0,0
70856.301,0,1,0,0,0
70896.26,0,1,0,0,0
70936.222,0,1,0,0,0
70976.246,0,1,0,0,0
71016.273,0,1,0,0,0
71056.306,0,1,0,0,0
71096.276,0,1,0,0,0
71136.214,0,1,0,0,0
71176.239,0,1,0,0,0
71216.238,0,1,0,0,0
71256.274,0,1,0,0,0
71296.291,0,1,0,0,0
71336.263,0,1,0,0,0
71376.204,0,1,0,0,0
71416.233,0,1,0,0,0
71456.239,0,1,0,0,0
71496.258,0,1,0,0,0
71536.295,0,1,0,0,0
71576.241,0,1,0,0,0
71616.213,0,1,0,0,0
71656.232,0,1,0,0,0
71696.28,0,1,0,0,0
71736.27,0,1,0,0,0
71776.268,0,1,0,0,0
71816.248,0,1,0,0,0
71856.231,0,1,0,0,0
71896.258,0,1,0,0,0
71936.274,0,1,0,0,0
71976.303,0,1,0,0,0
72016.283,0,1,0,0,0
72056.205,0,1,0,0,0
72096.236,0,1,0,0,0
72136.224,0,1,0,0,0
72176.266,0,1,0,0,0
72216.279,0,1,0,0,0
72256.238,0,1,0,0,0
72296.206,0,1,0,0,0
72336.244,0,1,0,0,0
72376.235,0,1,0,0,0
72416.251,0,1,0,0,0
72456.292,0,1,0,0,0
72496.242,0,1,0,0,0
72536.213,0,1,0,0,0
72576.252,0,1,0,0,0
72616.268,0,1,0,0,0
72656.259,0,1,0,0,0
72696.288,0,1,0,0,0
72736.226,0,1,0,0,0
72776.248,0,1,0,0,0
72816.237,0,1,0,0,0
72856.277,0,1,0,0,0
72896.259,0,1,0,0,0
72936.275,0,1,0,0,0
72976.204,0,1,0,0,0
73016.237,0,1,0,0,0
73056.226,0,1,0,0,0
73096.264,0,1,0,0,0
73136.254,0,1,0,0,0
73176.248,0,1,0,0,0
73216.205,0,1,0,0,0
73256.232,0,1,0,0,0
73296.283,0,1,0,0,0
73336.277,0,1,0,0,0
73376.32,0,1,0,0,0
73416.249,0,1,0,0,0
73456.238,0,1,0,0,0
73496.234,0,1,0,0,0
73536.265,0,1,0,0,0
73576.283,0,1,0,0,0
73616.269,0,1,0,0,0
73656.205,0,1,0,0,0
73696.228,0,1,0,0,0
73736.246,0,1,0,0,0
73776.259,0,1,0,0,0
73816.303,0,1,0,0,0
73856.257,0,1,0,0,0
73896.202,0,1,0,0,0
73936.235,0,1,0,0,0
73976.21,0,1,0,0,0
74016.266,0,1,0,0,0
74056.256,0,1,0,0,0
74096.237,0,1,0,0,0
74136.202,0,1,0,0,0
74176.239,0,1,0,0,0
74216.267,0,1,0,0,0
74256.256,0,1,0,0,0
74296.28,0,1,0,0,0
74336.227,0,1,0,0,0
74376.218,0,1,0,0,0
74416.239,0,1,0,0,0
74456.284,0,1,0,0,0
74496.283,0,1,0,0,0
74536.257,0,1,0,0,0
74576.204,0,1,0,0,0
74616.228,0,1,0,0,0
74656.237,0,0.9999926686286926,-0.003119225613772869,0.002227247226983309,1.4147547517495696e-05
74696.27,0,0.9999926686286926,-0.0031036168802529573,0.002242018934339285,3.176647396685439e-06
74736.308,0,0.9999926090240479,-0.003102269023656845,0.0022582372184842825,1.0349654075980652e-05
74776.258,0,0.9999926090240479,-0.003112736390903592,0.0022675031796097755,2.07235189009225e-05
74816.22,0,0.9999925494194031,-0.0031116425525397062,0.0022811605595052242,2.447812403261196e-05
74856.236,0,0.9999925494194031,-0.003099820576608181,0.0022978768683969975,2.243399285362102e-05
74896.207,0,0.9999924898147583,-0.0031042592599987984,0.002312400611117482,2.9160726626287214e-05
74936.264,0,0.9999924302101135,-0.003115803236141801,0.0023255355190485716,3.657570778159425e-05
74976.286,0,0.9999924302101135,-0.003113827668130398,0.0023385772947221994,3.1336938263848424e-05
75016.252,0,0.9999924302101135,-0.0030967385973781347,0.002360953949391842,2.9317116059246473e-05
75056.211,0,0.9999923706054688,-0.0030930167995393276,0.0023793564178049564,3.56050550180953e-05
75096.227,0,0.999992311000824,-0.0031050897669047117,0.002395292744040489,3.406698306207545e-05
75136.254,0,0.999992311000824,-0.0030986382625997066,0.002412789035588503,3.746633228729479e-05
75176.256,0,0.999992311000824,-0.0030837850645184517,0.0024317570496350527,3.4409637009957805e-05
75216.261,0,0.9999922513961792,-0.0030899206176400185,0.0024510398507118225,3.493211988825351e-05
75256.243,0,0.9999921917915344,-0.0030991125386208296,0.002463342621922493,2.9160009944462217e-05
75296.225,0,0.9999921917915344,-0.0030836467631161213,0.0024778535589575768,4.000867920694873e-05
75336.231,0,0.9999921917915344,-0.003072874154895544,0.0024942043237388134,3.587983883335255e-05
75376.257,0,0.9999920725822449,-0.003086757380515337,0.0025068395771086216,3.5627301258500665e-05
75416.276,0,0.9999920129776001,-0.0030955991242080927,0.0025186901912093163,4.1794253775151446e-05
75456.27,0,0.9999920725822449,-0.0030832584016025066,0.0025303824804723263,4.199978138785809e-05
75496.2,0,0.9999920129776001,-0.003074987092986703,0.002552322344854474,3.191154246451333e-05
75536.248,0,0.9999919533729553,-0.0030879084952175617,0.0025630053132772446,3.675580592243932e-05
75576.226,0,0.9999918937683105,-0.0030927187763154507,0.002575687365606427,4.485260433284566e-05
75616.266,0,0.9999918937683105,-0.003082193899899721,0.0025888236705213785,4.2524756281636655e-05
75656.27,0,0.9999918341636658,-0.0030819284729659557,0.0026088636368513107,3.61190723197069e-05
75696.267,0,0.999991774559021,-0.00309547851793468,0.002622101688757539,4.015834565507248e-05
75736.201,0,0.9999917149543762,-0.0030986592173576355,0.00263182632625103,3.967863449361175e-05
75776.23,0,0.9999917149543762,-0.0030978242866694927,0.0026444571558386087,3.091232792939991e-05
75816.274,0,0.9999916553497314,-0.0030988622456789017,0.002653644187375903,3.92336914956104e-05
75856.245,0,0.9999915957450867,-0.003113871207460761,0.002661661943420768,4.96862230647821e-05
75896.279,0,0.9999915957450867,-0.003116532228887081,0.00266696373000741,4.52732783742249e-05
75936.262,0,0.9999915957450867,-0.003110639750957489,0.002678067423403263,4.238270048517734e-05
75976.199,0,0.9999915361404419,-0.0031175322365015745,0.0026862688828259706,4.873035868513398e-05
76016.227,0,0.9999914765357971,-0.003132880898192525,0.0026933171320706606,5.089920887257904e-05
76056.26,0,0.9999914169311523,-0.0031359607819467783,0.0026990848127752542,4.5805805712006986e-05
76096.283,0,0.9999914169311523,-0.003130234545096755,0.00270514702424407,4.016767707071267e-05
76136.276,0,0.9999913573265076,-0.0031462758779525757,0.002712490502744913,5.13663690071553e-05
76176.241,0,0.9999912977218628,-0.003160174237564206,0.0027180479373782873,4.76130771858152e-05
76216.232,0,0.9999912977218628,-0.0031499171163886786,0.0027272524312138557,4.6696648496435955e-05
76256.235,0,0.9999912977218628,-0.003145689144730568,0.00273507391102612,4.788662772625685e-05
76296.268,0,0.9999912977218628,-0.003154867561534047,0.0027387721929699183,4.69791739305947e-05
76336.276,0,0.999991238117218,-0.003168090246617794,0.002741288859397173,4.772143438458443e-05
76376.315,0,0.9999911785125732,-0.0031644096598029137,0.0027525494806468487,5.430597229860723e-05
76416.215,0,0.9999911785125732,-0.003159941639751196,0.0027641342021524906,5.418845103122294e-05
76456.231,0,0.9999911189079285,-0.003178939688950777,0.0027716460172086954,5.7910136092687026e-05
76496.216,0,0.9999910593032837,-0.0031861208844929934,0.002775765024125576,6.696656782878563e-05
76536.273,0,0.9999910593032837,-0.0031810777727514505,0.0027830733451992273,6.692390888929367e-05
76576.288,0,0.9999910593032837,-0.0031820605508983135,0.0027866631280630827,5.813395182485692e-05
76616.228,0,0.9999909996986389,-0.003193907206878066,0.0027896519750356674,6.699874938931316e-05
76656.203,0,0.9999909996986389,-0.0031980453059077263,0.0027962715830653906,7.230545452330261e-05
76696.229,0,0.9999909996986389,-0.0031872685067355633,0.0028068856336176395,6.865563773317263e-05
76736.247,0,0.9999909996986389,-0.0031864445190876722,0.0028091110289096832,7.044758967822418e-05
76776.262,0,0.9999909400939941,-0.0031962848734110594,0.0028103822842240334,8.159952267305925e-05
76816.289,0,0.9999909400939941,-0.0031972434371709824,0.0028161113150417805,7.789625669829547e-05
76856.264,0,0.9999909400939941,-0.0031938168685883284,0.0028199327643960714,7.026309322100133e-05
76896.201,0,0.9999908804893494,-0.003201843239367008,0.00282588810659945,7.549189467681572e-05
76936.238,0,0.9999908208847046,-0.003213723422959447,0.0028310262132436037,8.708417590241879e-05
76976.258,0,0.9999908208847046,-0.003212067997083068,0.0028403098694980145,8.027839794522151e-05
77016.272,0,0.9999908208847046,-0.003200144274160266,0.0028455443680286407,7.637469389010221e-05
77056.27,0,0.9999908208847046,-0.0032062502577900887,0.0028468151576817036,8.541965507902205e-05
77096.2,0,0.9999907612800598,-0.0032188259065151215,0.0028551314026117325,8.561781578464434e-05
77136.234,0,0.9999907612800598,-0.0032146330922842026,0.0028601319063454866,8.621430606581271e-05
77176.234,0,0.9999907612800598,-0.003205063985660672,0.0028663065750151873,8.920473192119971e-05
77216.267,0,0.999990701675415,-0.003210824215784669,0.002876786282286048,9.546602086629719e-05
77256.274,0,0.9999906420707703,-0.003216751152649522,0.0028847830835729837,9.386166493641213e-05
77296.263,0,0.9999906420707703,-0.003207113826647401,0.0028972995933145285,9.789626346901059e-05
77336.2,0,0.9999906420707703,-0.0032017910853028297,0.0029087283182889223,0.0001000892007141374
77376.228,0,0.9999905824661255,-0.00321180559694767,0.0029104764107614756,9.511290409136564e-05
77416.223,0,0.9999905824661255,-0.003219821024686098,0.002917467150837183,0.00010066622780868784
77456.311,0,0.9999905824661255,-0.0032128228340297937,0.0029188073240220547,0.00010124916298082098
77496.254,0,0.9999905824661255,-0.003209897316992283,0.00292383274063468,9.691953891888261e-05
77536.233,0,0.9999905228614807,-0.0032231323421001434,0.002926595974713564,9.98499381239526e-05
77576.206,0,0.9999905228614807,-0.003222936764359474,0.0029273834079504013,0.00010294279491063207
77616.228,0,0.9999905228614807,-0.0032141071278601885,0.002930414630100131,0.00010317371925339103
77656.26,0,0.9999905228614807,-0.0032167043536901474,0.0029346344526857138,0.00010142297833226621
77696.264,0,0.9999904632568359,-0.0032239900901913643,0.0029375979211181402,0.00010675744124455377
77736.266,0,0.9999904632568359,-0.003226614324375987,0.0029369813855737448,0.0001100139124901034
77776.236,0,0.9999905228614807,-0.0032158291433006525,0.0029316169675439596,9.885477629723027e-05
77816.204,0,0.9999905228614807,-0.0032179371919482946,0.002931610681116581,9.614462032914162e-05
77856.251,0,0.9999905228614807,-0.0032248967327177525,0.002929096110165119,0.00010333299724152312
77896.253,0,0.9999905228614807,-0.0032254226971417665,0.0029322002083063126,9.440042776986957e-05
77936.289,0,0.9999905824661255,-0.003211636794731021,0.0029208753257989883,8.900579996407032e-05
77976.252,0,0.9999905824661255,-0.003216035896912217,0.0029156790114939213,9.801011037779972e-05
78016.2,0,0.9999905228614807,-0.0032307312358170748,0.002906796056777239,0.00010130916780326515
78056.231,0,0.9999905824661255,-0.0032247588969767094,0.0028999322094023228,9.844318265095353e-05
78096.228,0,0.9999906420707703,-0.0032190990168601274,0.0028926264494657516,0.00010208276944467798
78136.252,0,0.9999906420707703,-0.003224169136956334,0.002877085004001856,0.00010300327267032117
78176.273,0,0.999990701675415,-0.003233538707718253,0.0028581374790519476,0.00010310052311979234
78216.28,0,0.999990701675415,-0.003231890732422471,0.002843329682946205,0.00010969030699925497
78256.222,0,0.9999907612800598,-0.0032349235843867064,0.0028275561053305864,0.00010860781912924722
78296.228,0,0.9999907612800598,-0.003244949271902442,0.002809608820825815,0.00011201179586350918
78336.228,0,0.9999908208847046,-0.0032556341029703617,0.002788680139929056,0.0001144345078500919
78376.258,0,0.9999908804893494,-0.0032481132075190544,0.002772439271211624,0.00011570808419492096
78416.288,0,0.9999909400939941,-0.003251026151701808,0.0027521392330527306,0.00011688955419231206
78456.262,0,0.9999909400939941,-0.0032653743401169777,0.0027353328187018633,0.00011696718138409778
78496.199,0,0.9999909996986389,-0.003267524763941765,0.002713451161980629,0.00011499367246869951
78536.231,0,0.9999910593032837,-0.003261765232309699,0.0026916605420410633,0.00011550712224561721
78576.261,0,0.9999911189079285,-0.0032653978560119867,0.002671525813639164,0.00011328716936986893
78616.228,0,0.9999911189079285,-0.0032732693944126368,0.0026555643416941166,0.00011245958012295887
78656.283,0,0.9999911785125732,-0.0032734847627580166,0.0026336091104894876,0.000113947520731017
78696.255,0,0.999991238117218,-0.0032716179266572,0.0026131088379770517,0.00010770920926006511
78736.216,0,0.999991238117218,-0.00328268064185977,0.002589052077382803,0.00010329543147236109
78776.236,0,0.9999912977218628,-0.00329244090244174,0.0025701108388602734,0.00010880153422476724
78816.26,0,0.9999912977218628,-0.0032917740754783154,0.00255767535418272,0.0001010977357509546
78856.293,0,0.9999913573265076,-0.0032877607736736536,0.0025367815978825092,9.463398600928485e-05
78896.262,0,0.9999913573265076,-0.0032994451466947794,0.002519749803468585,9.130765829468146e-05
78936.211,0,0.9999914169311523,-0.0033079865388572216,0.0024976336862891912,9.344086720375344e-05
78976.224,0,0.9999914765357971,-0.00330677954480052,0.0024808126036077738,9.264766413252801e-05
79016.224,0,0.9999914765357971,-0.003306981176137924,0.0024643545038998127,8.843240357236937e-05
79056.262,0,0.9999915361404419,-0.003313126042485237,0.002444676822051406,9.401291026733816e-05
79096.267,0,0.9999915361404419,-0.0033153824042528868,0.0024257635232061148,9.378592949360609e-05
79136.261,0,0.9999915957450867,-0.003311106702312827,0.002409990644082427,8.070278272498399e-05
79176.204,0,0.9999916553497314,-0.0033074161037802696,0.002391722286120057,8.291660924442112e-05
79216.248,0,0.9999916553497314,-0.003313921159133315,0.002376261632889509,8.815840556053445e-05
79256.21,0,0.9999917149543762,-0.003312139306217432,0.0023589618504047394,8.601453737355769e-05
79296.279,0,0.999991774559021,-0.0033098298590630293,0.002345010871067643,8.147029438987374e-05
79336.277,0,0.9999918341636658,-0.0033078668639063835,0.002328824019059539,8.21874346002005e-05
79376.226,0,0.9999918341636658,-0.0033195640426129103,0.0023123736027628183,8.302385685965419e-05
79416.203,0,0.9999918341636658,-0.0033188695088028908,0.002295008162036538,8.39727945276536e-05
79456.229,0,0.9999918937683105,-0.003310196101665497,0.0022803291212767363,8.607131167082116e-05
79496.252,0,0.9999918937683105,-0.0033141556195914745,0.00227467087097466,8.318977052113041e-05
79536.291,0,0.9999918937683105,-0.0033251920249313116,0.002262201625853777,8.318055188283324e-05
79576.268,0,0.9999919533729553,-0.003321616444736719,0.002250269055366516,8.745570812607184e-05
79616.22,0,0.9999920129776001,-0.0033155828714370728,0.0022398100700229406,8.792179869487882e-05
79656.228,0,0.9999920129776001,-0.0033210001420229673,0.0022292956709861755,8.443036495009437e-05
79696.242,0,0.9999920129776001,-0.0033295946195721626,0.002219491871073842,8.064977009780705e-05
79736.266,0,0.9999920129776001,-0.003326018340885639,0.002210515784099698,7.965127588249743e-05
79776.251,0,0.9999920129776001,-0.0033260956406593323,0.0022039697505533695,7.908388215582818e-05
79816.257,0,0.9999920725822449,-0.003330830717459321,0.002192231360822916,8.243942284025252e-05
79856.202,0,0.9999920129776001,-0.003340780269354582,0.0021828939206898212,8.311618876177818e-05
79896.224,0,0.9999920725822449,-0.0033335918560624123,0.0021757413633167744,7.871572597650811e-05
79936.222,0,0.9999920725822449,-0.003330492414534092,0.0021675946190953255,7.32852568035014e-05
79976.26,0,0.9999920725822449,-0.0033363362308591604,0.002158641116693616,7.741714216535911e-05
80016.239,0,0.9999921321868896,-0.003337510395795107,0.0021489399950951338,7.89017285569571e-05
80056.246,0,0.9999921321868896,-0.0033311019651591778,0.002145414473488927,7.37441296223551e-05
80096.206,0,0.9999921321868896,-0.003330434439703822,0.0021414291113615036,7.210103649413213e-05
80136.227,0,0.9999921321868896,-0.003336473135277629,0.0021343003027141094,7.216208905447274e-05
80176.274,0,0.9999921917915344,-0.003332091961055994,0.0021307228598743677,6.91359382472001e-05
80216.261,0,0.9999921917915344,-0.0033290754072368145,0.0021237002220004797,6.564576324308291e-05
80256.259,0,0.9999921917915344,-0.0033278819173574448,0.0021245938260108232,6.169264088384807e-05
80296.235,0,0.9999921917915344,-0.003339908318594098,0.002122631762176752,6.425931496778503e-05
80336.207,0,0.9999921917915344,-0.0033360193483531475,0.0021249197889119387,5.7376502809347585e-05
80376.226,0,0.9999922513961792,-0.0033279426861554384,0.0021154028363525867,5.297351162880659e-05
80416.26,0,0.9999922513961792,-0.0033303971868008375,0.0021099867299199104,4.760926458402537e-05
80456.277,0,0.9999921917915344,-0.003334110602736473,0.002109107095748186,4.4163760321680456e-05
80496.279,0,0.9999921917915344,-0.0033352563623338938,0.0021116684656590223,4.6348133764695376e-05
80536.224,0,0.9999922513961792,-0.0033308241982012987,0.0021087834611535072,4.448909021448344e-05
80576.24,0,0.9999922513961792,-0.003331937128677964,0.0021077117417007685,4.8120811698026955e-05
80616.238,0,0.9999921917915344,-0.003333310130983591,0.0021084239706397057,5.0918813940370455e-05
80656.294,0,0.9999921917915344,-0.00333694857545197,0.002105636755004525,5.001277895644307e-05
80696.274,0,0.9999922513961792,-0.0033352812752127647,0.002101027173921466,4.662538049160503e-05
80736.281,0,0.9999922513961792,-0.0033427411690354347,0.0020925370045006275,4.4814343709731475e-05
80776.21,0,0.9999921917915344,-0.0033510259818285704,0.0020872086752206087,4.369276575744152e-05
80816.233,0,0.9999921917915344,-0.0033474378287792206,0.002087937667965889,4.218698086333461e-05
80856.215,0,0.9999921917915344,-0.00334601360373199,0.0020911928731948137,3.732214463525452e-05
80896.261,0,0.9999921917915344,-0.0033495144452899694,0.0020850752480328083,3.729829040821642e-05
80936.279,0,0.9999922513961792,-0.0033455812372267246,0.00208028731867671,4.0970786358229816e-05
80976.227,0,0.9999922513961792,-0.0033373339101672173,0.0020760714542120695,3.7826735933776945e-05
81016.199,0,0.9999922513961792,-0.003337610512971878,0.0020769645925611258,3.213559466530569e-05
81056.234,0,0.9999922513961792,-0.003344168420881033,0.002076588338240981,3.7712441553594545e-05
81096.243,0,0.9999922513961792,-0.0033472864888608456,0.002075892174616456,3.327352169435471e-05
81136.238,0,0.9999922513961792,-0.0033446403685957193,0.0020709792152047157,2.7756266717915423e-05
81176.281,0,0.9999922513961792,-0.003341994946822524,0.0020721545442938805,2.9096700018271804e-05
81216.235,0,0.9999922513961792,-0.0033457980025559664,0.002071055816486478,2.9175716917961836e-05
81256.204,0,0.9999922513961792,-0.003345555393025279,0.002076293108984828,3.578055475372821e-05
81296.229,0,0.9999922513961792,-0.003337293863296509,0.0020781466737389565,3.570895569282584e-05
81336.267,0,0.9999922513961792,-0.00334118097089231,0.002082561608403921,3.4621978556970134e-05
81376.299,0,0.9999922513961792,-0.003344355383887887,0.0020812046714127064,3.2417716283816844e-05
81416.277,0,0.9999922513961792,-0.0033479584380984306,0.0020812132861465216,2.9384107619989663e-05
81456.2,0,0.9999922513961792,-0.003342029871419072,0.0020838011987507343,2.3310365577344783e-05
81496.226,0,0.9999922513961792,-0.0033421246334910393,0.002083136700093746,2.4677177862031385e-05
81536.234,0,0.9999922513961792,-0.003343751188367605,0.0020839476492255926,1.9905444787582383e-05
81576.259,0,0.9999922513961792,-0.00334372790530324,0.0020831706933677197,2.1213703803368844e-05
81616.275,0,0.9999922513961792,-0.00334069668315351,0.0020786968525499105,2.0063343981746584e-05
81656.263,0,0.9999921917915344,-0.0033517200499773026,0.0020797676406800747,1.9743491066037677e-05
81696.201,0,0.9999922513961792,-0.003350233193486929,0.0020760849583894014,2.4248107365565374e-05
81736.252,0,0.9999922513961792,-0.003340743249282241,0.002082051942124963,1.898890513984952e-05
81776.212,0,0.9999922513961792,-0.0033357643987983465,0.0020800605416297913,1.6178330042748712e-05
81816.255,0,0.9999922513961792,-0.0033369327429682016,0.0020789525005966425,1.8770189853967167e-05
81856.267,0,0.9999922513961792,-0.003337025409564376,0.0020759934559464455,2.160985786758829e-05
81896.252,0,0.999992311000824,-0.003329200902953744,0.0020793003495782614,2.767901423794683e-05
81936.206,0,0.999992311000824,-0.00332380598410964,0.002080469625070691,2.0144629161222838e-05
81976.231,0,0.9999922513961792,-0.003332216991111636,0.0020847059786319733,1.922434057632927e-05
82016.28,0,0.9999922513961792,-0.0033340626396238804,0.002082881750538945,2.5402860046597198e-05
82056.229,0,0.999992311000824,-0.0033283461816608906,0.002083687111735344,2.555820537963882e-05
82096.297,0,0.9999922513961792,-0.0033324514515697956,0.002085896674543619,3.0195918952813372e-05
82136.225,0,0.9999922513961792,-0.003337129019200802,0.0020924473647028208,3.40103724738583e-05
82176.214,0,0.9999922513961792,-0.0033331781160086393,0.002094838535413146,4.080232611158863e-05
82216.232,0,0.9999922513961792,-0.0033279454801231623,0.0020958390086889267,3.933889092877507e-05
82256.258,0,0.9999922513961792,-0.003328101010993123,0.0020978879183530807,4.1052433516597375e-05
82296.251,0,0.9999922513961792,-0.0033277326729148626,0.002100943122059107,4.2635248973965645e-05
82336.275,0,0.9999922513961792,-0.0033248942345380783,0.0020969382021576166,3.695385385071859e-05
82376.211,0,0.999992311000824,-0.0033140890300273895,0.00209617568179965,4.334312325227074e-05
82416.228,0,0.999992311000824,-0.003316305112093687,0.002088288078084588,4.951537266606465e-05
82456.23,0,0.999992311000824,-0.0033219780307263136,0.0020894103217869997,4.811076360056177e-05
82496.25,0,0.999992311000824,-0.0033113709650933743,0.002089183311909437,4.4543572585098445e-05
82536.277,0,0.9999923706054688,-0.0033018847461789846,0.0020881835371255875,4.6402561565628275e-05
82576.261,0,0.9999923706054688,-0.0033038738183677197,0.002096167765557766,4.877760147792287e-05
82616.199,0,0.9999923706054688,-0.0033010325860232115,0.0020921584218740463,5.0245766033185646e-05
82656.226,0,0.9999923706054688,-0.0032960278913378716,0.0020948031451553106,4.580468885251321e-05
82696.206,0,0.9999923706054688,-0.003289450891315937,0.002097821095958352,3.901693708030507e-05
82736.273,0,0.9999923706054688,-0.0032911573071032763,0.0021016630344092846,4.037734470330179e-05
82776.295,0,0.9999923706054688,-0.00329137803055346,0.002104228362441063,3.835394818452187e-05
82816.242,0,0.9999923706054688,-0.0032878126949071884,0.0021021675784140825,3.815192394540645e-05
82856.203,0,0.9999923706054688,-0.0032897144556045532,0.002096765674650669,3.185098466929048e-05
82896.229,0,0.9999923706054688,-0.0032906848937273026,0.002097019460052252,3.113066850346513e-05
82936.262,0,0.9999923706054688,-0.0032896047923713923,0.0020940126851201057,3.467392161837779e-05
82976.281,0,0.9999924302101135,-0.0032837556209415197,0.002093932358548045,3.2185034797294065e-05
83016.267,0,0.9999924302101135,-0.0032797991298139095,0.002090537454932928,3.01447362289764e-05
83056.23,0,0.9999924302101135,-0.003280664561316371,0.002091858070343733,3.000812284881249e-05
83096.211,0,0.9999924302101135,-0.003275739261880517,0.002094749826937914,3.076638313359581e-05
83136.227,0,0.9999924302101135,-0.0032719322480261326,0.002096331911161542,3.209192072972655e-05
83176.267,0,0.9999924898147583,-0.0032688379287719727,0.002093004994094372,4.044468005304225e-05
83216.283,0,0.9999924898147583,-0.0032719809096306562,0.0020877928473055363,4.2317293264204636e-05
83256.287,0,0.9999924898147583,-0.003267632331699133,0.002088558627292514,3.262918835389428e-05
83296.23,0,0.9999924898147583,-0.003267191117629409,0.002090906258672476,2.706075247260742e-05
83336.23,0,0.9999924898147583,-0.00326540251262486,0.002097895136103034,2.872509867302142e-05
83376.219,0,0.9999924302101135,-0.0032693438697606325,0.0021013945806771517,2.393691465840675e-05
83416.273,0,0.9999924898147583,-0.0032637554686516523,0.002095563104376197,2.208967816841323e-05
83456.267,0,0.9999924898147583,-0.0032572688069194555,0.0021027333568781614,2.378686622250825e-05
83496.249,0,0.9999924898147583,-0.003260472323745489,0.0021035850513726473,2.0001656594104134e-05
83536.204,0,0.9999924898147583,-0.0032593144569545984,0.002108153887093067,1.7720221876516007e-05
83576.231,0,0.9999924898147583,-0.003254150738939643,0.002114110393449664,1.9976094336016104e-05
83616.288,0,0.9999924898147583,-0.0032497013453394175,0.0021146503277122974,1.7141603166237473e-05
83656.262,0,0.9999924302101135,-0.003252884140238166,0.0021231980063021183,1.8490338334231637e-05
83696.288,0,0.9999924302101135,-0.0032552299089729786,0.0021273924503475428,1.1719719623215497e-05
83736.259,0,0.9999924302101135,-0.0032542680855840445,0.0021343808621168137,9.535128810966853e-06
83776.204,0,0.9999924302101135,-0.0032561207190155983,0.0021361655090004206,5.855615654581925e-06
83816.232,0,0.9999923706054688,-0.003261421574279666,0.002139120129868388,8.760464879742358e-06
83856.265,0,0.9999923706054688,-0.003261336823925376,0.0021375983487814665,1.2588898243848234e-05
83896.278,0,0.9999924302101135,-0.003255136776715517,0.0021448624320328236,1.0755399671324994e-05
83936.275,0,0.9999924302101135,-0.003252384252846241,0.0021440081764012575,1.0425656000734307e-05
83976.237,0,0.9999924302101135,-0.0032500496599823236,0.0021424475125968456,1.2061895176884718e-05
84016.227,0,0.9999924302101135,-0.003245907835662365,0.0021468752529472113,1.1356752111169044e-05
84056.231,0,0.9999924302101135,-0.003245182568207383,0.0021502096205949783,9.92136756394757e-06
84096.265,0,0.9999924302101135,-0.003246705513447523,0.002155797788873315,1.2281974704819731e-05
84136.271,0,0.9999924302101135,-0.00324755790643394,0.002156495815142989,1.1380538126104511e-05
84176.256,0,0.9999924302101135,-0.0032471041195094585,0.0021566085051745176,1.3121789379511029e-05
84216.216,0,0.9999924302101135,-0.003246412379667163,0.002157098613679409,1.4064087736187503e-05
84256.243,0,0.9999923706054688,-0.003251028945669532,0.002161614364013076,1.477041769248899e-05
84296.22,0,0.9999923706054688,-0.003252111840993166,0.0021668015979230404,1.928313031385187e-05
84336.281,0,0.9999923706054688,-0.0032525870483368635,0.00216498551890254,1.6758076526457444e-05
84376.256,0,0.9999923706054688,-0.0032514999620616436,0.0021681017242372036,1.2227996194269508e-05
84416.241,0,0.9999923706054688,-0.003254637587815523,0.002169892191886902,1.3335130461200606e-05
84456.201,0,0.9999923706054688,-0.003254528157413006,0.002170601859688759,1.5075399460329209e-05
84496.226,0,0.9999923706054688,-0.003250367473810911,0.002172491978853941,1.709538082650397e-05
