time_boot_ms,DesRoll,Roll,DesPitch,Pitch,DesYaw,Yaw,ErrRP,ErrYaw,AEKF
5155.851,0,-0.62,0,-0.36,0,0,1,1,0
5158.278,0,-0.62,0,-0.36,0,0,1,1,0
5160.9,0,-0.62,0,-0.36,0,0,1,1,0
5163.207,0,-0.62,0,-0.36,0,0,1,1,0
5165.854,0,-0.62,0,-0.36,0,0,1,1,0
5168.25,0,-0.62,0,-0.36,0,0,1,1,0
5170.837,0,-0.62,0,-0.36,0,0,1,1,0
5173.287,0,-0.62,0,-0.36,0,0,1,1,0
5175.866,0,-0.62,0,-0.36,0,0,1,1,0
5178.254,0,-0.62,0,-0.36,0,0,1,1,0
5180.79,0,-0.62,0,-0.36,0,0,1,1,0
5183.375,0,-0.62,0,-0.36,0,0,1,1,0
5185.744,0,-0.62,0,-0.36,0,0,1,1,0
5188.334,0,-0.62,0,-0.36,0,0,1,1,0
5190.739,0,-0.62,0,-0.35,0,0,1,1,0
5193.304,0,-0.62,0,-0.35,0,0,1,1,0
5195.777,0,-0.62,0,-0.35,0,0,1,1,0
5198.346,0,-0.62,0,-0.35,0,0,1,1,0
5200.803,0,-0.62,0,-0.35,0,0,1,1,0
5203.283,0,-0.62,0,-0.35,0,0,1,1,0
5205.808,0,-0.62,0,-0.35,0,0,1,1,0
5208.232,0,-0.62,0,-0.35,0,0,1,1,0
5210.843,0,-0.62,0,-0.35,0,0,1,1,0
5213.227,0,-0.62,0,-0.35,0,0,1,1,0
5215.834,0,-0.62,0,-0.35,0,0,1,1,0
5218.23,0,-0.62,0,-0.35,0,0,1,1,0
5220.855,0,-0.62,0,-0.35,0,0,1,1,0
5223.292,0,-0.62,0,-0.35,0,0,1,1,0
5225.799,0,-0.62,0,-0.35,0,0,1,1,0
5228.353,0,-0.62,0,-0.35,0,0,1,1,0
5230.791,0,-0.62,0,-0.35,0,0,1,1,0
5233.353,0,-0.62,0,-0.35,0,0,1,1,0
5236.063,0,-0.62,0,-0.35,0,0,1,1,0
5238.331,0,-0.62,0,-0.35,0,0,1,1,0
5240.763,0,-0.62,0,-0.35,0,0,1,1,0
5243.34,0,-0.62,0,-0.35,0,0,1,1,0
5245.801,0,-0.62,0,-0.35,0,0,1,1,0
5248.295,0,-0.62,0,-0.35,0,0,1,1,0
5250.765,0,-0.62,0,-0.35,0,0,1,1,0
5253.251,0,-0.62,0,-0.35,0,0,1,1,0
5255.81,0,-0.62,0,-0.35,0,0,1,1,0
5258.277,0,-0.62,0,-0.35,0,0,1,1,0
5260.843,0,-0.62,0,-0.35,0,0,1,1,0
5263.238,0,-0.62,0,-0.35,0,0,1,1,0
5265.86,0,-0.62,0,-0.35,0,0,1,1,0
5268.263,0,-0.62,0,-0.35,0,0,1,1,0
5270.811,0,-0.62,0,-0.35,0,0,1,1,0
5273.311,0,-0.62,0,-0.35,0,0,1,1,0
5275.814,0,-0.62,0,-0.35,0,0,1,1,0
5278.343,0,-0.62,0,-0.35,0,0,1,1,0
5280.817,0,-0.62,0,-0.35,0,0,1,1,0
5283.338,0,-0.62,0,-0.35,0,0,1,1,0
5285.75,0,-0.62,0,-0.35,0,0,1,1,0
5288.337,0,-0.62,0,-0.35,0,0,1,1,0
5290.834,0,-0.62,0,-0.35,0,0,1,1,0
5293.321,0,-0.62,0,-0.35,0,0,1,1,0
5295.835,0,-0.62,0,-0.35,0,0,1,1,0
5298.302,0,-0.62,0,-0.35,0,0,1,1,0
5300.769,0,-0.62,0,-0.35,0,0,1,1,0
5303.294,0,-0.62,0,-0.35,0,0,1,1,0
5305.818,0,-0.62,0,-0.35,0,0,1,1,0
5308.34,0,-0.62,0,-0.35,0,0,1,1,0
5310.836,0,-0.62,0,-0.35,0,0,1,1,0
5313.266,0,-0.62,0,-0.35,0,0,1,1,0
5315.836,0,-0.62,0,-0.35,0,0,1,1,0
5318.308,0,-0.62,0,-0.35,0,0,1,1,0
5320.785,0,-0.62,0,-0.35,0,0,0.8,1,0
5323.333,0,-0.62,0,-0.35,0,0,0.8,1,0
5325.79,0,-0.62,0,-0.35,0,0,0.8,1,0
5328.3,0,-0.62,0,-0.35,0,0,0.8,1,0
5330.714,0,-0.62,0,-0.35,0,0,0.8,1,0
5333.305,0,-0.62,0,-0.35,0,0,0.8,1,0
5336.012,0,-0.62,0,-0.35,0,0,0.8,1,0
5338.342,0,-0.62,0,-0.35,0,0,0.8,1,0
5340.8,0,-0.62,0,-0.35,0,0,0.8,1,0
5343.312,0,-0.62,0,-0.35,0,0,0.8,1,0
5345.823,0,-0.62,0,-0.35,0,0,0.8,1,0
5348.297,0,-0.62,0,-0.35,0,0,0.8,1,0
5350.848,0,-0.62,0,-0.35,0,0,0.8,1,0
5353.227,0,-0.62,0,-0.35,0,0,0.8,1,0
5355.902,0,-0.62,0,-0.35,0,0,0.8,1,0
5358.219,0,-0.62,0,-0.35,0,0,0.8,1,0
5360.826,0,-0.62,0,-0.35,0,0,0.8,1,0
5363.303,0,-0.62,0,-0.35,0,0,0.8,1,0
5365.831,0,-0.62,0,-0.35,0,0,0.8,1,0
5368.286,0,-0.62,0,-0.35,0,0,0.8,1,0
5370.795,0,-0.62,0,-0.35,0,0,0.8,1,0
5373.345,0,-0.62,0,-0.35,0,0,0.8,1,0
5375.812,0,-0.62,0,-0.35,0,0,0.8,1,0
5378.362,0,-0.62,0,-0.35,0,0,0.8,1,0
5380.735,0,-0.62,0,-0.35,0,0,0.8,1,0
5383.368,0,-0.62,0,-0.35,0,0,0.8,1,0
5385.749,0,-0.62,0,-0.36,0,0,0.8,1,0
5388.354,0,-0.62,0,-0.36,0,0,0.8,1,0
5390.803,0,-0.62,0,-0.36,0,0,0.8,1,0
5393.323,0,-0.62,0,-0.36,0,0,0.8,1,0
5395.816,0,-0.62,0,-0.36,0,0,0.8,1,0
5398.273,0,-0.62,0,-0.36,0,0,0.8,1,0
5400.782,0,-0.62,0,-0.36,0,0,0.8,1,0
5403.216,0,-0.62,0,-0.36,0,0,0.8,1,0
5405.868,0,-0.62,0,-0.36,0,0,0.8,1,0
5408.272,0,-0.62,0,-0.36,0,0,0.8,1,0
5410.837,0,-0.62,0,-0.36,0,0,0.8,1,0
5413.252,0,-0.62,0,-0.36,0,0,0.8,1,0
5415.896,0,-0.62,0,-0.36,0,0,0.8,1,0
5418.288,0,-0.62,0,-0.36,0,0,0.8,1,0
5420.807,0,-0.62,0,-0.36,0,0,0.8,1,0
5423.291,0,-0.62,0,-0.36,0,0,0.8,1,0
5425.789,0,-0.62,0,-0.36,0,0,0.8,1,0
5428.322,0,-0.62,0,-0.36,0,0,0.8,1,0
5430.711,0,-0.62,0,-0.36,0,0,0.8,1,0
5433.279,0,-0.62,0,-0.36,0,0,0.8,1,0
5436.007,0,-0.62,0,-0.36,0,0,0.8,1,0
5438.318,0,-0.62,0,-0.36,0,0,0.8,1,0
5440.781,0,-0.62,0,-0.36,0,0,0.8,1,0
5443.247,0,-0.62,0,-0.36,0,0,0.8,1,0
5445.759,0,-0.62,0,-0.36,0,0,0.8,1,0
5448.29,0,-0.62,0,-0.36,0,0,0.8,1,0
5450.779,0,-0.62,0,-0.36,0,0,0.8,1,0
5453.211,0,-0.62,0,-0.36,0,0,0.8,1,0
5455.84,0,-0.62,0,-0.36,0,0,0.8,1,0
5458.229,0,-0.62,0,-0.36,0,0,0.8,1,0
5460.839,0,-0.62,0,-0.36,0,0,0.8,1,0
5463.28,0,-0.62,0,-0.36,0,0,0.8,1,0
5465.825,0,-0.62,0,-0.36,0,0,0.8,1,0
5468.326,0,-0.62,0,-0.36,0,0,0.8,1,0
5470.781,0,-0.62,0,-0.37,0,0,0.8,1,0
5473.305,0,-0.62,0,-0.37,0,0,0.8,1,0
5475.781,0,-0.62,0,-0.37,0,0,0.8,1,0
5478.322,0,-0.62,0,-0.37,0,0,0.8,1,0
5480.719,0,-0.62,0,-0.37,0,0,0.8,1,0
5483.333,0,-0.62,0,-0.37,0,0,0.8,1,0
5485.779,0,-0.62,0,-0.37,0,0,0.8,1,0
5488.271,0,-0.62,0,-0.37,0,0,0.8,1,0
5490.827,0,-0.62,0,-0.37,0,0,0.8,1,0
5493.256,0,-0.62,0,-0.37,0,0,0.8,1,0
5495.815,0,-0.62,0,-0.37,0,0,0.8,1,0
5498.235,0,-0.62,0,-0.37,0,0,0.8,1,0
5500.841,0,-0.62,0,-0.37,0,0,0.8,1,0
5503.206,0,-0.62,0,-0.37,0,0,0.8,1,0
5505.859,0,-0.62,0,-0.37,0,0,0.8,1,0
5508.256,0,-0.62,0,-0.37,0,0,0.8,1,0
5510.741,0,-0.62,0,-0.37,0,0,0.8,1,0
5513.294,0,-0.62,0,-0.37,0,0,0.8,1,0
5515.786,0,-0.62,0,-0.37,0,0,0.8,1,0
5518.328,0,-0.62,0,-0.37,0,0,0.8,1,0
5520.836,0,-0.62,0,-0.37,0,0,0.64,1,0
5523.345,0,-0.62,0,-0.37,0,0,0.64,1,0
5525.737,0,-0.62,0,-0.37,0,0,0.64,1,0
5528.379,0,-0.62,0,-0.37,0,0,0.64,1,0
5530.792,0,-0.62,0,-0.37,0,0,0.64,1,0
5533.37,0,-0.62,0,-0.37,0,0,0.64,1,0
5535.985,0,-0.62,0,-0.37,0,0,0.64,1,0
5538.35,0,-0.62,0,-0.37,0,0,0.64,1,0
5540.773,0,-0.62,0,-0.37,0,0,0.64,1,0
5543.272,0,-0.62,0,-0.37,0,0,0.64,1,0
5545.818,0,-0.62,0,-0.37,0,0,0.64,1,0
5548.237,0,-0.62,0,-0.37,0,0,0.64,1,0
5550.852,0,-0.62,0,-0.37,0,0,0.64,1,0
5553.237,0,-0.62,0,-0.38,0,0,0.64,1,0
5555.853,0,-0.62,0,-0.38,0,0,0.64,1,0
5558.269,0,-0.62,0,-0.38,0,0,0.64,1,0
5560.853,0,-0.62,0,-0.38,0,0,0.64,1,0
5563.3,0,-0.62,0,-0.38,0,0,0.64,1,0
5565.796,0,-0.62,0,-0.38,0,0,0.64,1,0
5568.28,0,-0.62,0,-0.38,0,0,0.64,1,0
5570.794,0,-0.62,0,-0.38,0,0,0.64,1,0
5573.314,0,-0.62,0,-0.38,0,0,0.64,1,0
5575.725,0,-0.62,0,-0.38,0,0,0.64,1,0
5578.35,0,-0.62,0,-0.38,0,0,0.64,1,0
5580.779,0,-0.62,0,-0.38,0,0,0.64,1,0
5583.304,0,-0.62,0,-0.38,0,0,0.64,1,0
5585.77,0,-0.62,0,-0.38,0,0,0.64,1,0
5588.294,0,-0.62,0,-0.38,0,0,0.64,1,0
5590.848,0,-0.62,0,-0.38,0,0,0.64,1,0
5593.253,0,-0.62,0,-0.38,0,0,0.64,1,0
5595.803,0,-0.62,0,-0.38,0,0,0.64,1,0
5598.314,0,-0.62,0,-0.38,0,0,0.64,1,0
5600.834,0,-0.62,0,-0.38,0,0,0.64,1,0
5603.263,0,-0.62,0,-0.38,0,0,0.64,1,0
5605.827,0,-0.62,0,-0.38,0,0,0.64,1,0
5608.266,0,-0.62,0,-0.38,0,0,0.64,1,0
5610.764,0,-0.62,0,-0.38,0,0,0.64,1,0
5613.266,0,-0.62,0,-0.38,0,0,0.64,1,0
5615.789,0,-0.62,0,-0.38,0,0,0.64,1,0
5618.286,0,-0.62,0,-0.39,0,0,0.64,1,0
5620.737,0,-0.62,0,-0.39,0,0,0.64,1,0
5623.289,0,-0.62,0,-0.39,0,0,0.64,1,0
5625.757,0,-0.62,0,-0.39,0,0,0.64,1,0
5628.33,0,-0.62,0,-0.39,0,0,0.64,1,0
5630.825,0,-0.62,0,-0.39,0,0,0.64,1,0
5633.281,0,-0.62,0,-0.39,0,0,0.64,1,0
5635.997,0,-0.62,0,-0.39,0,0,0.64,1,0
5638.271,0,-0.62,0,-0.39,0,0,0.64,1,0
5640.841,0,-0.62,0,-0.39,0,0,0.64,1,0
5643.227,0,-0.62,0,-0.39,0,0,0.64,1,0
5645.836,0,-0.62,0,-0.39,0,0,0.64,1,0
5648.201,0,-0.62,0,-0.39,0,0,0.64,1,0
5650.826,0,-0.62,0,-0.39,0,0,0.64,1,0
5653.243,0,-0.62,0,-0.39,0,0,0.64,1,0
5655.753,0,-0.62,0,-0.39,0,0,0.64,1,0
5658.276,0,-0.62,0,-0.39,0,0,0.64,1,0
5660.762,0,-0.62,0,-0.39,0,0,0.64,1,0
5663.346,0,-0.62,0,-0.39,0,0,0.64,1,0
5665.774,0,-0.62,0,-0.39,0,0,0.64,1,0
5668.329,0,-0.62,0,-0.39,0,0,0.64,1,0
5670.732,0,-0.62,0,-0.39,0,0,0.64,1,0
5673.338,0,-0.62,0,-0.39,0,0,0.64,1,0
5675.73,0,-0.62,0,-0.39,0,0,0.64,1,0
5678.339,0,-0.62,0,-0.39,0,0,0.64,1,0
5680.799,0,-0.62,0,-0.39,0,0,0.64,1,0
5683.253,0,-0.62,0,-0.4,0,0,0.64,1,0
5685.814,0,-0.62,0,-0.4,0,0,0.64,1,0
5688.275,0,-0.62,0,-0.4,0,0,0.64,1,0
5690.866,0,-0.62,0,-0.4,0,0,0.64,1,0
5693.25,0,-0.62,0,-0.4,0,0,0.64,1,0
5695.867,0,-0.62,0,-0.4,0,0,0.64,1,0
5698.21,0,-0.62,0,-0.4,0,0,0.64,1,0
5700.876,0,-0.62,0,-0.4,0,0,0.64,1,0
5703.25,0,-0.62,0,-0.4,0,0,0.64,1,0
5705.876,0,-0.62,0,-0.4,0,0,0.64,1,0
5708.25,0,-0.62,0,-0.4,0,0,0.64,1,0
5710.891,0,-0.62,0,-0.4,0,0,0.64,1,0
5713.341,0,-0.62,0,-0.4,0,0,0.64,1,0
5715.807,0,-0.62,0,-0.4,0,0,0.64,1,0
5718.307,0,-0.62,0,-0.4,0,0,0.64,1,0
5720.786,0,-0.62,0,-0.4,0,0,0.51,1,0
5723.347,0,-0.62,0,-0.4,0,0,0.51,1,0
5725.781,0,-0.62,0,-0.4,0,0,0.51,1,0
5728.334,0,-0.62,0,-0.4,0,0,0.51,1,0
5730.796,0,-0.62,0,-0.4,0,0,0.51,1,0
5733.264,0,-0.62,0,-0.4,0,0,0.51,1,0
5735.952,0,-0.62,0,-0.4,0,0,0.51,1,0
5738.3,0,-0.62,0,-0.4,0,0,0.51,1,0
5740.811,0,-0.62,0,-0.4,0,0,0.51,1,0
5743.209,0,-0.62,0,-0.4,0,0,0.51,1,0
5745.83,0,-0.62,0,-0.4,0,0,0.51,1,0
5748.229,0,-0.62,0,-0.4,0,0,0.51,1,0
5750.845,0,-0.62,0,-0.4,0,0,0.51,1,0
5753.27,0,-0.62,0,-0.4,0,0,0.51,1,0
5755.869,0,-0.62,0,-0.4,0,0,0.51,1,0
5758.26,0,-0.62,0,-0.4,0,0,0.51,1,0
5760.819,0,-0.62,0,-0.4,0,0,0.51,1,0
5763.358,0,-0.62,0,-0.4,0,0,0.51,1,0
5765.803,0,-0.62,0,-0.4,0,0,0.51,1,0
5768.33,0,-0.62,0,-0.4,0,0,0.51,1,0
5770.721,0,-0.62,0,-0.4,0,0,0.51,1,0
5773.359,0,-0.62,0,-0.4,0,0,0.51,1,0
5775.775,0,-0.62,0,-0.4,0,0,0.51,1,0
5778.307,0,-0.62,0,-0.4,0,0,0.51,1,0
5780.753,0,-0.62,0,-0.4,0,0,0.51,1,0
5783.35,0,-0.62,0,-0.4,0,0,0.51,1,0
5785.836,0,-0.62,0,-0.4,0,0,0.51,1,0
5788.313,0,-0.62,0,-0.4,0,0,0.51,1,0
5790.845,0,-0.62,0,-0.4,0,0,0.51,1,0
5793.284,0,-0.62,0,-0.41,0,0,0.51,1,0
5795.842,0,-0.62,0,-0.41,0,0,0.51,1,0
5798.284,0,-0.62,0,-0.41,0,0,0.51,1,0
5800.821,0,-0.62,0,-0.41,0,0,0.51,1,0
5803.275,0,-0.62,0,-0.41,0,0,0.51,1,0
5805.794,0,-0.62,0,-0.41,0,0,0.51,1,0
5808.26,0,-0.62,0,-0.41,0,0,0.51,1,0
5810.782,0,-0.62,0,-0.41,0,0,0.51,1,0
5813.324,0,-0.62,0,-0.41,0,0,0.51,1,0
5815.819,0,-0.62,0,-0.41,0,0,0.51,1,0
5818.332,0,-0.62,0,-0.41,0,0,0.51,1,0
5820.766,0,-0.62,0,-0.41,0,0,0.51,1,0
5823.304,0,-0.62,0,-0.41,0,0,0.51,1,0
5825.835,0,-0.62,0,-0.41,0,0,0.51,1,0
5828.269,0,-0.62,0,-0.41,0,0,0.51,1,0
5830.767,0,-0.62,0,-0.41,0,0,0.51,1,0
5833.272,0,-0.62,0,-0.41,0,0,0.51,1,0
5836.052,0,-0.62,0,-0.41,0,0,0.51,1,0
5838.187,0,-0.62,0,-0.41,0,0,0.51,1,0
5840.798,0,-0.62,0,-0.41,0,0,0.51,1,0
5843.232,0,-0.62,0,-0.41,0,0,0.51,1,0
5845.828,0,-0.62,0,-0.41,0,0,0.51,1,0
5848.258,0,-0.62,0,-0.41,0,0,0.51,1,0
5850.746,0,-0.62,0,-0.41,0,0,0.51,1,0
5853.321,0,-0.62,0,-0.41,0,0,0.51,1,0
5855.805,0,-0.62,0,-0.41,0,0,0.51,1,0
5858.353,0,-0.62,0,-0.41,0,0,0.51,1,0
5860.787,0,-0.62,0,-0.41,0,0,0.51,1,0
5863.364,0,-0.62,0,-0.41,0,0,0.51,1,0
5865.713,0,-0.62,0,-0.41,0,0,0.51,1,0
5868.32,0,-0.62,0,-0.41,0,0,0.51,1,0
5870.769,0,-0.62,0,-0.41,0,0,0.51,1,0
5873.305,0,-0.62,0,-0.41,0,0,0.51,1,0
5875.826,0,-0.62,0,-0.41,0,0,0.51,1,0
5878.269,0,-0.62,0,-0.41,0,0,0.51,1,0
5880.821,0,-0.62,0,-0.41,0,0,0.51,1,0
5883.263,0,-0.62,0,-0.41,0,0,0.51,1,0
5885.816,0,-0.62,0,-0.41,0,0,0.51,1,0
5888.245,0,-0.62,0,-0.41,0,0,0.51,1,0
5890.876,0,-0.62,0,-0.41,0,0,0.51,1,0
5893.22,0,-0.62,0,-0.41,0,0,0.51,1,0
5895.859,0,-0.62,0,-0.41,0,0,0.51,1,0
5898.266,0,-0.62,0,-0.41,0,0,0.51,1,0
5900.778,0,-0.62,0,-0.41,0,0,0.51,1,0
5903.337,0,-0.62,0,-0.41,0,0,0.51,1,0
5905.753,0,-0.62,0,-0.41,0,0,0.51,1,0
5908.359,0,-0.62,0,-0.41,0,0,0.51,1,0
5910.738,0,-0.62,0,-0.41,0,0,0.51,1,0
5913.344,0,-0.62,0,-0.41,0,0,0.51,1,0
5915.722,0,-0.62,0,-0.41,0,0,0.51,1,0
5918.357,0,-0.62,0,-0.41,0,0,0.51,1,0
5920.807,0,-0.62,0,-0.41,0,0,0.41,1,0
5923.318,0,-0.62,0,-0.41,0,0,0.41,1,0
5925.751,0,-0.62,0,-0.41,0,0,0.41,1,0
5928.283,0,-0.62,0,-0.41,0,0,0.41,1,0
5930.781,0,-0.62,0,-0.41,0,0,0.41,1,0
5933.242,0,-0.62,0,-0.41,0,0,0.41,1,0
5935.975,0,-0.62,0,-0.41,0,0,0.41,1,0
5938.189,0,-0.62,0,-0.41,0,0,0.41,1,0
5940.865,0,-0.62,0,-0.41,0,0,0.41,1,0
5943.237,0,-0.62,0,-0.41,0,0,0.41,1,0
5945.843,0,-0.62,0,-0.41,0.01,0.01,0.41,1,0
5948.253,0,-0.62,0,-0.41,0.01,0.01,0.41,1,0
5950.788,0,-0.62,0,-0.41,0.01,0.01,0.41,1,0
5953.273,0,-0.62,0,-0.41,0.01,0.01,0.41,1,0
5955.773,0,-0.62,0,-0.41,0.01,0.01,0.41,1,0
5958.279,0,-0.62,0,-0.41,0.01,0.01,0.41,1,0
5960.734,0,-0.62,0,-0.41,0.01,0.01,0.41,1,0
5963.334,0,-0.62,0,-0.41,0.01,0.01,0.41,1,0
5965.725,0,-0.62,0,-0.41,0.01,0.01,0.41,1,0
5968.343,0,-0.62,0,-0.41,0.01,0.01,0.41,1,0
5970.755,0,-0.62,0,-0.41,0,0,0.41,1,0
5973.319,0,-0.62,0,-0.41,0,0,0.41,1,0
5975.794,0,-0.62,0,-0.41,0,0,0.41,1,0
5978.312,0,-0.62,0,-0.41,0,0,0.41,1,0
5980.792,0,-0.62,0,-0.41,0,0,0.41,1,0
5983.257,0,-0.62,0,-0.41,0,0,0.41,1,0
5985.828,0,-0.62,0,-0.41,0,0,0.41,1,0
5988.202,0,-0.62,0,-0.41,0,0,0.41,1,0
5990.836,0,-0.62,0,-0.41,0,0,0.41,1,0
5993.264,0,-0.62,0,-0.41,0.01,0.01,0.41,1,0
5995.834,0,-0.62,0,-0.41,0,0,0.41,1,0
5998.265,0,-0.62,0,-0.41,0.01,0.01,0.41,1,0
6000.78,0,-0.62,0,-0.41,0.01,0.01,0.41,1,0
6003.273,0,-0.62,0,-0.41,0.01,0.01,0.41,1,0
6005.814,0,-0.62,0,-0.41,0.01,0.01,0.41,1,0
6008.343,0,-0.62,0,-0.41,0.01,0.01,0.41,1,0
6010.76,0,-0.62,0,-0.41,0.01,0.01,0.41,1,0
6013.31,0,-0.62,0,-0.41,0.01,0.01,0.41,1,0
6015.812,0,-0.62,0,-0.41,0.01,0.01,0.41,1,0
6018.331,0,-0.62,0,-0.41,0.01,0.01,0.41,1,0
6020.762,0,-0.62,0,-0.41,0.01,0.01,0.41,1,0
6023.225,0,-0.62,0,-0.41,0.01,0.01,0.41,1,0
6025.742,0,-0.62,0,-0.41,0.01,0.01,0.41,1,0
6028.3,0,-0.62,0,-0.41,0.01,0.01,0.41,1,0
6030.799,0,-0.62,0,-0.41,0.01,0.01,0.41,1,0
6033.225,0,-0.62,0,-0.41,0.01,0.01,0.41,1,0
6035.989,0,-0.62,0,-0.41,0.01,0.01,0.41,1,0
6038.253,0,-0.62,0,-0.41,0.01,0.01,0.41,1,0
6040.819,0,-0.62,0,-0.41,0.01,0.01,0.41,1,0
6043.278,0,-0.62,0,-0.41,0.01,0.01,0.41,1,0
6045.811,0,-0.62,0,-0.41,0.01,0.01,0.41,1,0
6048.314,0,-0.62,0,-0.41,0,0,0.41,1,0
6050.761,0,-0.62,0,-0.41,0,0,0.41,1,0
6053.356,0,-0.62,0,-0.41,0,0,0.41,1,0
6055.785,0,-0.62,0,-0.41,0,0,0.41,1,0
6058.319,0,-0.62,0,-0.41,0,0,0.41,1,0
6060.718,0,-0.62,0,-0.41,0,0,0.41,1,0
6063.301,0,-0.62,0,-0.41,0,0,0.41,1,0
6065.75,0,-0.62,0,-0.41,0,0,0.41,1,0
6068.246,0,-0.62,0,-0.41,0,0,0.41,1,0
6070.821,0,-0.62,0,-0.41,0,0,0.41,1,0
6073.263,0,-0.62,0,-0.41,0,0,0.41,1,0
6075.845,0,-0.62,0,-0.41,0,0,0.41,1,0
6078.271,0,-0.62,0,-0.41,0,0,0.41,1,0
6080.836,0,-0.62,0,-0.41,0,0,0.41,1,0
6083.227,0,-0.62,0,-0.41,0,0,0.41,1,0
6085.859,0,-0.62,0,-0.41,0,0,0.41,1,0
6088.234,0,-0.62,0,-0.41,0,0,0.41,1,0
6090.798,0,-0.62,0,-0.41,0,0,0.41,1,0
6093.291,0,-0.62,0,-0.41,0,0,0.41,1,0
6095.821,0,-0.62,0,-0.41,0,0,0.41,1,0
6098.274,0,-0.62,0,-0.41,0,0,0.41,1,0
6100.76,0,-0.62,0,-0.41,0,0,0.41,1,0
6103.354,0,-0.62,0,-0.41,0,0,0.41,1,0
6105.741,0,-0.62,0,-0.41,0,0,0.41,1,0
6108.355,0,-0.62,0,-0.41,0,0,0.41,1,0
6110.714,0,-0.62,0,-0.41,0,0,0.41,1,0
6113.331,0,-0.62,0,-0.41,0,0,0.41,1,0
6115.756,0,-0.62,0,-0.41,0,0,0.41,1,0
6118.265,0,-0.62,0,-0.41,0,0,0.41,1,0
6121.313,0,-0.62,0,-0.41,0,0,0.41,1,0
6123.339,0,-0.62,0,-0.41,0,0,0.32,1,0
6125.896,0,-0.62,0,-0.41,0.01,0.01,0.32,1,0
6128.33,0,-0.62,0,-0.41,0.01,0.01,0.32,1,0
6130.901,0,-0.62,0,-0.41,0.01,0.01,0.32,1,0
6133.29,0,-0.62,0,-0.41,0.01,0.01,0.32,1,0
6136.071,0,-0.62,0,-0.41,0.01,0.01,0.32,1,0
6138.968,0,-0.62,0,-0.41,0.01,0.01,0.32,1,0
6141.522,0,-0.62,0,-0.41,0.01,0.01,0.32,1,0
6144.026,0,-0.62,0,-0.41,0.01,0.01,0.32,1,0
6146.525,0,-0.62,0,-0.41,0.01,0.01,0.32,1,0
6149.014,0,-0.62,0,-0.41,0.01,0.01,0.32,1,0
6151.517,0,-0.62,0,-0.41,0.01,0.01,0.32,1,0
6153.989,0,-0.62,0,-0.41,0.01,0.01,0.32,1,0
6156.493,0,-0.62,0,-0.41,0.01,0.01,0.32,1,0
6159.032,0,-0.62,0,-0.41,0.01,0.01,0.32,1,0
6161.466,0,-0.62,0,-0.41,0.01,0.01,0.32,1,0
6164.017,0,-0.62,0,-0.42,0.01,0.01,0.32,1,0
6166.39,0,-0.62,0,-0.42,0.01,0.01,0.32,1,0
6169.035,0,-0.62,0,-0.42,0.01,0.01,0.32,1,0
6171.443,0,-0.62,0,-0.42,0.01,0.01,0.32,1,0
6174.019,0,-0.62,0,-0.42,0.01,0.01,0.32,1,0
6176.489,0,-0.62,0,-0.42,0.01,0.01,0.32,1,0
6179.054,0,-0.62,0,-0.42,0.01,0.01,0.32,1,0
6181.511,0,-0.62,0,-0.42,0.01,0.01,0.32,1,0
6183.976,0,-0.62,0,-0.42,0.01,0.01,0.32,1,0
6186.49,0,-0.62,0,-0.42,0.01,0.01,0.32,1,0
6188.973,0,-0.62,0,-0.42,0.01,0.01,0.32,1,0
6191.588,0,-0.62,0,-0.42,0.01,0.01,0.32,1,0
6193.981,0,-0.62,0,-0.42,0.01,0.01,0.32,1,0
6196.514,0,-0.62,0,-0.42,0.01,0.01,0.32,1,0
6198.955,0,-0.62,0,-0.42,0.01,0.01,0.32,1,0
6201.542,0,-0.62,0,-0.42,0.01,0.01,0.32,1,0
6203.981,0,-0.62,0,-0.42,0.01,0.01,0.32,1,0
6206.47,0,-0.62,0,-0.42,0.01,0.01,0.32,1,0
6209.033,0,-0.62,0,-0.42,0.01,0.01,0.32,1,0
6211.463,0,-0.62,0,-0.42,0.01,0.01,0.32,1,0
6214.046,0,-0.62,0,-0.42,0.01,0.01,0.32,1,0
6216.405,0,-0.62,0,-0.42,0.01,0.01,0.32,1,0
6219.044,0,-0.62,0,-0.42,0.01,0.01,0.32,1,0
6221.453,0,-0.62,0,-0.42,0.01,0.01,0.32,1,0
6224.089,0,-0.62,0,-0.42,0.01,0.01,0.32,1,0
6226.48,0,-0.62,0,-0.42,0.01,0.01,0.32,1,0
6229.024,0,-0.62,0,-0.42,0.01,0.01,0.32,1,0
6231.531,0,-0.62,0,-0.42,0.01,0.01,0.32,1,0
6233.972,0,-0.62,0,-0.42,0.01,0.01,0.32,1,0
6236.694,0,-0.62,0,-0.42,0.01,0.01,0.32,1,0
6238.876,0,-0.62,0,-0.42,0.01,0.01,0.32,1,0
6241.532,0,-0.62,0,-0.42,0.01,0.01,0.32,1,0
6243.918,0,-0.62,0,-0.42,0.01,0.01,0.32,1,0
6246.551,0,-0.62,0,-0.42,0.01,0.01,0.32,1,0
6248.969,0,-0.62,0,-0.42,0.01,0.01,0.32,1,0
6251.565,0,-0.62,0,-0.42,0.01,0.01,0.32,1,0
6254.002,0,-0.62,0,-0.42,0.01,0.01,0.32,1,0
6256.587,0,-0.62,0,-0.42,0.01,0.01,0.32,1,0
6259.023,0,-0.62,0,-0.42,0.01,0.01,0.32,1,0
6261.453,0,-0.62,0,-0.42,0.01,0.01,0.32,1,0
6264.009,0,-0.62,0,-0.42,0.01,0.01,0.32,1,0
6266.411,0,-0.62,0,-0.42,0.01,0.01,0.32,1,0
6269.014,0,-0.62,0,-0.42,0.01,0.01,0.32,1,0
6271.443,0,-0.62,0,-0.42,0.01,0.01,0.32,1,0
6274.078,0,-0.62,0,-0.42,0.01,0.01,0.32,1,0
6276.5,0,-0.62,0,-0.42,0.01,0.01,0.32,1,0
6279.073,0,-0.62,0,-0.42,0.01,0.01,0.32,1,0
6281.524,0,-0.62,0,-0.42,0.01,0.01,0.32,1,0
6284.013,0,-0.62,0,-0.42,0.01,0.01,0.32,1,0
6286.509,0,-0.62,0,-0.42,0.01,0.01,0.32,1,0
6288.952,0,-0.62,0,-0.42,0.01,0.01,0.32,1,0
6291.521,0,-0.62,0,-0.42,0.01,0.01,0.32,1,0
6293.962,0,-0.62,0,-0.42,0.01,0.01,0.32,1,0
6296.559,0,-0.62,0,-0.42,0.01,0.01,0.32,1,0
6298.991,0,-0.62,0,-0.42,0.01,0.01,0.32,1,0
6301.494,0,-0.62,0,-0.42,0.01,0.01,0.32,1,0
6304.047,0,-0.62,0,-0.42,0.01,0.01,0.32,1,0
6306.494,0,-0.62,0,-0.42,0.01,0.01,0.32,1,0
6309.051,0,-0.62,0,-0.42,0.01,0.01,0.32,1,0
6311.427,0,-0.62,0,-0.42,0.01,0.01,0.32,1,0
6314.038,0,-0.62,0,-0.42,0.01,0.01,0.32,1,0
6316.495,0,-0.62,0,-0.42,0.01,0.01,0.32,1,0
6319.021,0,-0.62,0,-0.42,0.01,0.01,0.32,1,0
6321.498,0,-0.62,0,-0.42,0.01,0.01,0.32,1,0
6324.069,0,-0.62,0,-0.42,0.01,0.01,0.26,1,0
6326.553,0,-0.62,0,-0.42,0.01,0.01,0.26,1,0
6328.997,0,-0.62,0,-0.42,0.01,0.01,0.26,1,0
6331.53,0,-0.62,0,-0.42,0.01,0.01,0.26,1,0
6333.97,0,-0.62,0,-0.42,0.01,0.01,0.26,1,0
6336.708,0,-0.62,0,-0.42,0.01,0.01,0.26,1,0
6338.918,0,-0.62,0,-0.42,0.01,0.01,0.26,1,0
6341.509,0,-0.62,0,-0.42,0.01,0.01,0.26,1,0
6343.937,0,-0.62,0,-0.42,0.01,0.01,0.26,1,0
6346.581,0,-0.62,0,-0.42,0.01,0.01,0.26,1,0
6348.99,0,-0.62,0,-0.42,0.01,0.01,0.26,1,0
6351.477,0,-0.62,0,-0.42,0.01,0.01,0.26,1,0
6354.007,0,-0.62,0,-0.42,0.01,0.01,0.26,1,0
6356.504,0,-0.62,0,-0.42,0.01,0.01,0.26,1,0
6359.033,0,-0.62,0,-0.42,0.01,0.01,0.26,1,0
6361.383,0,-0.62,0,-0.42,0.01,0.01,0.26,1,0
6364.03,0,-0.62,0,-0.42,0.01,0.01,0.26,1,0
6366.435,0,-0.62,0,-0.42,0.01,0.01,0.26,1,0
6369.066,0,-0.62,0,-0.42,0.01,0.01,0.26,1,0
6371.478,0,-0.62,0,-0.43,0.01,0.01,0.26,1,0
6373.999,0,-0.62,0,-0.43,0.01,0.01,0.26,1,0
6376.511,0,-0.62,0,-0.43,0.01,0.01,0.26,1,0
6379.001,0,-0.62,0,-0.43,0.01,0.01,0.26,1,0
6381.499,0,-0.62,0,-0.43,0.01,0.01,0.26,1,0
6383.932,0,-0.62,0,-0.43,0.01,0.01,0.26,1,0
6386.51,0,-0.62,0,-0.43,0.01,0.01,0.26,1,0
6388.92,0,-0.62,0,-0.43,0.01,0.01,0.26,1,0
6391.578,0,-0.62,0,-0.43,0.01,0.01,0.26,1,0
6393.968,0,-0.62,0,-0.43,0.01,0.01,0.26,1,0
6396.559,0,-0.62,0,-0.43,0.01,0.01,0.26,1,0
6399.007,0,-0.62,0,-0.43,0.01,0.01,0.26,1,0
6401.509,0,-0.62,0,-0.43,0.01,0.01,0.26,1,0
6404.024,0,-0.62,0,-0.43,0.01,0.01,0.26,1,0
6406.475,0,-0.62,0,-0.43,0.01,0.01,0.26,1,0
6409.016,0,-0.62,0,-0.43,0.01,0.01,0.26,1,0
6411.48,0,-0.62,0,-0.43,0.01,0.01,0.26,1,0
6414.018,0,-0.62,0,-0.43,0.01,0.01,0.26,1,0
6416.498,0,-0.62,0,-0.43,0.01,0.01,0.26,1,0
6419.006,0,-0.62,0,-0.43,0.01,0.01,0.26,1,0
6421.494,0,-0.62,0,-0.43,0.01,0.01,0.26,1,0
6423.975,0,-0.62,0,-0.43,0.01,0.01,0.26,1,0
6426.486,0,-0.62,0,-0.43,0.01,0.01,0.26,1,0
6428.966,0,-0.62,0,-0.43,0.01,0.01,0.26,1,0
6431.54,0,-0.62,0,-0.43,0.01,0.01,0.26,1,0
6434.028,0,-0.62,0,-0.43,0.01,0.01,0.26,1,0
6436.683,0,-0.62,0,-0.43,0.01,0.01,0.26,1,0
6439.012,0,-0.62,0,-0.43,0.01,0.01,0.26,1,0
6441.554,0,-0.62,0,-0.43,0.01,0.01,0.26,1,0
6443.998,0,-0.62,0,-0.43,0.01,0.01,0.26,1,0
6446.477,0,-0.62,0,-0.43,0.01,0.01,0.26,1,0
6449.017,0,-0.62,0,-0.43,0.01,0.01,0.26,1,0
6451.481,0,-0.62,0,-0.43,0.01,0.01,0.26,1,0
6454.048,0,-0.62,0,-0.43,0.01,0.01,0.26,1,0
6456.434,0,-0.62,0,-0.43,0.01,0.01,0.26,1,0
6459.036,0,-0.62,0,-0.43,0.01,0.01,0.26,1,0
6461.436,0,-0.62,0,-0.43,0.01,0.01,0.26,1,0
6464.008,0,-0.62,0,-0.43,0.01,0.01,0.26,1,0
6466.466,0,-0.62,0,-0.43,0.01,0.01,0.26,1,0
6468.961,0,-0.62,0,-0.43,0.01,0.01,0.26,1,0
6471.503,0,-0.62,0,-0.43,0.01,0.01,0.26,1,0
6473.986,0,-0.62,0,-0.43,0.01,0.01,0.26,1,0
6476.549,0,-0.62,0,-0.43,0.01,0.01,0.26,1,0
6478.961,0,-0.62,0,-0.43,0.01,0.01,0.26,1,0
6481.53,0,-0.62,0,-0.43,0.01,0.01,0.26,1,0
6483.979,0,-0.62,0,-0.43,0.01,0.01,0.26,1,0
6486.535,0,-0.62,0,-0.43,0.01,0.01,0.26,1,0
6488.944,0,-0.62,0,-0.43,0.01,0.01,0.26,1,0
6491.475,0,-0.62,0,-0.43,0.01,0.01,0.26,1,0
6493.983,0,-0.62,0,-0.43,0.01,0.01,0.26,1,0
6496.479,0,-0.62,0,-0.43,0.01,0.01,0.26,1,0
6499.026,0,-0.62,0,-0.43,0.01,0.01,0.26,1,0
6501.461,0,-0.62,0,-0.43,0.01,0.01,0.26,1,0
6504.08,0,-0.62,0,-0.43,0.01,0.01,0.26,1,0
6506.394,0,-0.62,0,-0.43,0.01,0.01,0.26,1,0
6509.049,0,-0.62,0,-0.43,0.01,0.01,0.26,1,0
6511.416,0,-0.62,0,-0.43,0.01,0.01,0.26,1,0
6514.09,0,-0.62,0,-0.43,0.01,0.01,0.26,1,0
6516.486,0,-0.62,0,-0.43,0.01,0.01,0.26,1,0
6519.068,0,-0.62,0,-0.43,0.01,0.01,0.26,1,0
6521.513,0,-0.62,0,-0.43,0.01,0.01,0.26,1,0
6524.078,0,-0.62,0,-0.43,0.01,0.01,0.26,1,0
6526.553,0,-0.62,0,-0.43,0.01,0.01,0.21,1,0
6528.959,0,-0.62,0,-0.43,0.01,0.01,0.21,1,0
6531.531,0,-0.62,0,-0.43,0.01,0.01,0.21,1,0
6533.994,0,-0.62,0,-0.43,0.01,0.01,0.21,1,0
6536.719,0,-0.62,0,-0.43,0.01,0.01,0.21,1,0
6538.972,0,-0.62,0,-0.43,0.01,0.01,0.21,1,0
6541.559,0,-0.62,0,-0.43,0.01,0.01,0.21,1,0
6543.981,0,-0.62,0,-0.43,0.01,0.01,0.21,1,0
6546.566,0,-0.62,0,-0.43,0.01,0.01,0.21,1,0
6549.005,0,-0.62,0,-0.43,0.01,0.01,0.21,1,0
6551.498,0,-0.62,0,-0.43,0.01,0.01,0.21,1,0
6554.013,0,-0.62,0,-0.43,0.01,0.01,0.21,1,0
6556.509,0,-0.62,0,-0.43,0.01,0.01,0.21,1,0
6559.004,0,-0.62,0,-0.43,0.01,0.01,0.21,1,0
6561.457,0,-0.62,0,-0.43,0.01,0.01,0.21,1,0
6564.053,0,-0.62,0,-0.43,0.01,0.01,0.21,1,0
6566.501,0,-0.62,0,-0.43,0.01,0.01,0.21,1,0
6568.985,0,-0.62,0,-0.43,0.01,0.01,0.21,1,0
6571.518,0,-0.62,0,-0.43,0.01,0.01,0.21,1,0
6574.006,0,-0.62,0,-0.43,0.01,0.01,0.21,1,0
6576.522,0,-0.62,0,-0.43,0.01,0.01,0.21,1,0
6578.939,0,-0.62,0,-0.43,0.01,0.01,0.21,1,0
6581.505,0,-0.62,0,-0.43,0.01,0.01,0.21,1,0
6583.989,0,-0.62,0,-0.43,0.01,0.01,0.21,1,0
6586.57,0,-0.62,0,-0.43,0.01,0.01,0.21,1,0
6588.992,0,-0.62,0,-0.43,0.01,0.01,0.21,1,0
6591.479,0,-0.62,0,-0.43,0.01,0.01,0.21,1,0
6593.941,0,-0.62,0,-0.43,0.01,0.01,0.21,1,0
6596.505,0,-0.62,0,-0.43,0.01,0.01,0.21,1,0
6598.994,0,-0.62,0,-0.43,0.01,0.01,0.21,1,0
6601.436,0,-0.62,0,-0.43,0.01,0.01,0.21,1,0
6603.997,0,-0.62,0,-0.43,0.01,0.01,0.21,1,0
6606.476,0,-0.62,0,-0.43,0.01,0.01,0.21,1,0
6609.028,0,-0.62,0,-0.43,0.01,0.01,0.21,1,0
6611.508,0,-0.62,0,-0.43,0.01,0.01,0.21,1,0
6614.047,0,-0.62,0,-0.43,0.01,0.01,0.21,1,0
6616.523,0,-0.62,0,-0.43,0.01,0.01,0.21,1,0
6618.981,0,-0.62,0,-0.43,0.01,0.01,0.21,1,0
6621.542,0,-0.62,0,-0.43,0.01,0.01,0.21,1,0
6623.916,0,-0.62,0,-0.43,0.01,0.01,0.21,1,0
6626.576,0,-0.62,0,-0.43,0.01,0.01,0.21,1,0
6628.898,0,-0.62,0,-0.43,0.01,0.01,0.21,1,0
6631.517,0,-0.62,0,-0.43,0.01,0.01,0.21,1,0
6633.951,0,-0.62,0,-0.43,0.01,0.01,0.21,1,0
6636.731,0,-0.62,0,-0.43,0.01,0.01,0.21,1,0
6639.015,0,-0.62,0,-0.43,0.01,0.01,0.21,1,0
6641.47,0,-0.62,0,-0.43,0.01,0.01,0.21,1,0
6644.042,0,-0.62,0,-0.43,0.01,0.01,0.21,1,0
6646.48,0,-0.62,0,-0.43,0.01,0.01,0.21,1,0
6649.036,0,-0.62,0,-0.43,0.01,0.01,0.21,1,0
6651.411,0,-0.62,0,-0.43,0.01,0.01,0.21,1,0
6654.02,0,-0.62,0,-0.43,0.01,0.01,0.21,1,0
6656.422,0,-0.62,0,-0.43,0.01,0.01,0.21,1,0
6659.039,0,-0.62,0,-0.43,0.01,0.01,0.21,1,0
6661.479,0,-0.62,0,-0.43,0.01,0.01,0.21,1,0
6663.985,0,-0.62,0,-0.43,0.01,0.01,0.21,1,0
6666.509,0,-0.62,0,-0.43,0.01,0.01,0.21,1,0
6668.961,0,-0.62,0,-0.43,0.01,0.01,0.21,1,0
6671.489,0,-0.62,0,-0.43,0.01,0.01,0.21,1,0
6673.935,0,-0.62,0,-0.43,0.01,0.01,0.21,1,0
6676.528,0,-0.62,0,-0.43,0.01,0.01,0.21,1,0
6678.913,0,-0.62,0,-0.43,0.01,0.01,0.21,1,0
6681.554,0,-0.62,0,-0.43,0.01,0.01,0.21,1,0
6683.972,0,-0.62,0,-0.43,0.01,0.01,0.21,1,0
6686.562,0,-0.62,0,-0.43,0.01,0.01,0.21,1,0
6688.983,0,-0.62,0,-0.43,0.01,0.01,0.21,1,0
6691.579,0,-0.62,0,-0.43,0.01,0.01,0.21,1,0
6693.995,0,-0.62,0,-0.43,0.01,0.01,0.21,1,0
6696.52,0,-0.62,0,-0.43,0.01,0.01,0.21,1,0
6699.019,0,-0.62,0,-0.43,0.01,0.01,0.21,1,0
6701.407,0,-0.62,0,-0.43,0.01,0.01,0.21,1,0
6704.059,0,-0.62,0,-0.43,0.01,0.01,0.21,1,0
6706.424,0,-0.62,0,-0.43,0.01,0.01,0.21,1,0
6709.077,0,-0.62,0,-0.43,0.01,0.01,0.21,1,0
6711.472,0,-0.62,0,-0.43,0.01,0.01,0.21,1,0
6714.072,0,-0.62,0,-0.43,0.01,0.01,0.21,1,0
6716.53,0,-0.62,0,-0.43,0.01,0.01,0.21,1,0
6719.008,0,-0.62,0,-0.43,0.01,0.01,0.21,1,0
6721.497,0,-0.62,0,-0.43,0.01,0.01,0.21,1,0
6723.954,0,-0.62,0,-0.43,0.01,0.01,0.21,1,0
6726.52,0,-0.62,0,-0.43,0.01,0.01,0.21,1,0
6728.965,0,-0.62,0,-0.43,0.01,0.01,0.16,1,0
6731.539,0,-0.62,0,-0.43,0.01,0.01,0.16,1,0
6733.983,0,-0.62,0,-0.43,0.01,0.01,0.16,1,0
6736.74,0,-0.62,0,-0.43,0.01,0.01,0.16,1,0
6738.98,0,-0.62,0,-0.43,0.01,0.01,0.16,1,0
6741.531,0,-0.62,0,-0.43,0.01,0.01,0.16,1,0
6743.987,0,-0.62,0,-0.43,0.01,0.01,0.16,1,0
6746.524,0,-0.62,0,-0.43,0.01,0.01,0.16,1,0
6749.033,0,-0.62,0,-0.43,0.01,0.01,0.16,1,0
6751.508,0,-0.62,0,-0.43,0.01,0.01,0.16,1,0
6754.022,0,-0.62,0,-0.43,0.01,0.01,0.16,1,0
6756.478,0,-0.62,0,-0.43,0.01,0.01,0.16,1,0
6759.046,0,-0.62,0,-0.43,0.01,0.01,0.16,1,0
6761.511,0,-0.62,0,-0.43,0.01,0.01,0.16,1,0
6763.999,0,-0.62,0,-0.43,0.01,0.01,0.16,1,0
6766.472,0,-0.62,0,-0.43,0.01,0.01,0.16,1,0
6768.982,0,-0.62,0,-0.43,0.01,0.01,0.16,1,0
6771.523,0,-0.62,0,-0.43,0.01,0.01,0.16,1,0
6774.032,0,-0.62,0,-0.43,0.01,0.01,0.16,1,0
6776.517,0,-0.62,0,-0.43,0.01,0.01,0.16,1,0
6779.003,0,-0.62,0,-0.43,0.01,0.01,0.16,1,0
6781.53,0,-0.62,0,-0.43,0.01,0.01,0.16,1,0
6784,0,-0.62,0,-0.43,0.01,0.01,0.16,1,0
6786.507,0,-0.62,0,-0.43,0.01,0.01,0.16,1,0
6789.037,0,-0.62,0,-0.43,0.01,0.01,0.16,1,0
6791.477,0,-0.62,0,-0.43,0.01,0.01,0.16,1,0
6794.083,0,-0.62,0,-0.43,0.01,0.01,0.16,1,0
6796.454,0,-0.62,0,-0.43,0.01,0.01,0.16,1,0
6799.008,0,-0.62,0,-0.43,0.01,0.01,0.16,1,0
6801.435,0,-0.62,0,-0.43,0.01,0.01,0.16,1,0
6804.039,0,-0.62,0,-0.43,0.01,0.01,0.16,1,0
6806.483,0,-0.62,0,-0.43,0.01,0.01,0.16,1,0
6808.972,0,-0.62,0,-0.43,0.01,0.01,0.16,1,0
6811.525,0,-0.62,0,-0.43,0.01,0.01,0.16,1,0
6813.988,0,-0.62,0,-0.43,0.01,0.01,0.16,1,0
6816.542,0,-0.62,0,-0.43,0.01,0.01,0.16,1,0
6818.881,0,-0.62,0,-0.43,0.01,0.01,0.16,1,0
6821.526,0,-0.62,0,-0.43,0.01,0.01,0.16,1,0
6823.915,0,-0.62,0,-0.43,0.01,0.01,0.16,1,0
6826.548,0,-0.62,0,-0.43,0.01,0.01,0.16,1,0
6828.951,0,-0.62,0,-0.43,0.01,0.01,0.16,1,0
6831.572,0,-0.62,0,-0.43,0.01,0.01,0.16,1,0
6833.995,0,-0.62,0,-0.43,0.01,0.01,0.16,1,0
6836.667,0,-0.62,0,-0.43,0.01,0.01,0.16,1,0
6839.051,0,-0.62,0,-0.43,0.01,0.01,0.16,1,0
6841.474,0,-0.62,0,-0.43,0.01,0.01,0.16,1,0
6844.024,0,-0.62,0,-0.43,0.01,0.01,0.16,1,0
6846.389,0,-0.62,0,-0.43,0.01,0.01,0.16,1,0
6849.013,0,-0.62,0,-0.43,0.01,0.01,0.16,1,0
6851.443,0,-0.62,0,-0.43,0.01,0.01,0.16,1,0
6854.082,0,-0.62,0,-0.43,0.01,0.01,0.16,1,0
6856.482,0,-0.62,0,-0.43,0.01,0.01,0.16,1,0
6859.065,0,-0.62,0,-0.43,0.01,0.01,0.16,1,0
6861.522,0,-0.62,0,-0.43,0.01,0.01,0.16,1,0
6863.958,0,-0.62,0,-0.43,0.01,0.01,0.16,1,0
6866.519,0,-0.62,0,-0.43,0.01,0.01,0.16,1,0
6868.88,0,-0.62,0,-0.43,0.01,0.01,0.16,1,0
6871.511,0,-0.62,0,-0.43,0.01,0.01,0.16,1,0
6873.92,0,-0.62,0,-0.43,0.01,0.01,0.16,1,0
6876.551,0,-0.62,0,-0.43,0.01,0.01,0.16,1,0
6878.944,0,-0.62,0,-0.43,0.01,0.01,0.16,1,0
6881.486,0,-0.62,0,-0.43,0.01,0.01,0.16,1,0
6884.01,0,-0.62,0,-0.43,0.01,0.01,0.16,1,0
6886.527,0,-0.62,0,-0.43,0.01,0.01,0.16,1,0
6888.986,0,-0.62,0,-0.43,0.01,0.01,0.16,1,0
6891.486,0,-0.62,0,-0.43,0.01,0.01,0.16,1,0
6894.004,0,-0.62,0,-0.43,0.01,0.01,0.16,1,0
6896.425,0,-0.62,0,-0.43,0.01,0.01,0.16,1,0
6899.034,0,-0.62,0,-0.43,0.01,0.01,0.16,1,0
6901.457,0,-0.62,0,-0.43,0.01,0.01,0.16,1,0
6904.048,0,-0.62,0,-0.43,0.01,0.01,0.16,1,0
6906.498,0,-0.62,0,-0.43,0.01,0.01,0.16,1,0
6909.029,0,-0.62,0,-0.43,0.01,0.01,0.16,1,0
6911.522,0,-0.62,0,-0.43,0.01,0.01,0.16,1,0
6913.992,0,-0.62,0,-0.43,0.01,0.01,0.16,1,0
6916.513,0,-0.62,0,-0.43,0.01,0.01,0.16,1,0
6919.016,0,-0.62,0,-0.43,0.01,0.01,0.16,1,0
6921.5,0,-0.62,0,-0.43,0.01,0.01,0.16,1,0
6923.905,0,-0.62,0,-0.43,0.01,0.01,0.16,1,0
6926.546,0,-0.62,0,-0.43,0.01,0.01,0.16,1,0
6929.003,0,-0.62,0,-0.43,0.01,0.01,0.13,1,0
6931.491,0,-0.62,0,-0.43,0.01,0.01,0.13,1,0
6934.023,0,-0.62,0,-0.43,0.01,0.01,0.13,1,0
6936.701,0,-0.62,0,-0.43,0.01,0.01,0.13,1,0
6938.981,0,-0.62,0,-0.43,0.01,0.01,0.13,1,0
6941.443,0,-0.62,0,-0.43,0.01,0.01,0.13,1,0
6944.02,0,-0.62,0,-0.43,0.01,0.01,0.13,1,0
6946.488,0,-0.62,0,-0.43,0.01,0.01,0.13,1,0
6949.022,0,-0.62,0,-0.43,0.01,0.01,0.13,1,0
6951.531,0,-0.62,0,-0.43,0.01,0.01,0.13,1,0
6953.965,0,-0.62,0,-0.43,0.01,0.01,0.13,1,0
6956.544,0,-0.62,0,-0.43,0.01,0.01,0.13,1,0
6958.99,0,-0.62,0,-0.43,0.01,0.01,0.13,1,0
6961.543,0,-0.62,0,-0.43,0.01,0.01,0.13,1,0
6963.927,0,-0.62,0,-0.43,0.01,0.01,0.13,1,0
6966.509,0,-0.62,0,-0.43,0.01,0.01,0.13,1,0
6968.974,0,-0.62,0,-0.43,0.01,0.01,0.13,1,0
6971.492,0,-0.62,0,-0.43,0.01,0.01,0.13,1,0
6973.95,0,-0.62,0,-0.43,0.01,0.01,0.13,1,0
6976.529,0,-0.62,0,-0.43,0.01,0.01,0.13,1,0
6978.988,0,-0.62,0,-0.43,0.01,0.01,0.13,1,0
6981.45,0,-0.62,0,-0.43,0.01,0.01,0.13,1,0
6984.02,0,-0.62,0,-0.43,0.01,0.01,0.13,1,0
6986.472,0,-0.62,0,-0.43,0.01,0.01,0.13,1,0
6989.04,0,-0.62,0,-0.43,0.01,0.01,0.13,1,0
6991.409,0,-0.62,0,-0.43,0.01,0.01,0.13,1,0
6994.021,0,-0.62,0,-0.43,0.01,0.01,0.13,1,0
6996.444,0,-0.62,0,-0.43,0.01,0.01,0.13,1,0
6999.052,0,-0.62,0,-0.43,0.01,0.01,0.13,1,0
7001.469,0,-0.62,0,-0.43,0.01,0.01,0.13,1,0
7003.958,0,-0.62,0,-0.43,0.01,0.01,0.13,1,0
7006.517,0,-0.62,0,-0.43,0.01,0.01,0.13,1,0
7008.982,0,-0.62,0,-0.43,0.01,0.01,0.13,1,0
7011.555,0,-0.62,0,-0.43,0.01,0.01,0.13,1,0
7013.885,0,-0.62,0,-0.43,0.01,0.01,0.13,1,0
7016.556,0,-0.62,0,-0.43,0.01,0.01,0.13,1,0
7018.908,0,-0.62,0,-0.43,0.01,0.01,0.13,1,0
7021.552,0,-0.62,0,-0.43,0.01,0.01,0.13,1,0
7023.936,0,-0.62,0,-0.43,0.01,0.01,0.13,1,0
7026.585,0,-0.62,0,-0.43,0.01,0.01,0.13,1,0
7029.019,0,-0.62,0,-0.43,0.01,0.01,0.13,1,0
7031.527,0,-0.62,0,-0.43,0.01,0.01,0.13,1,0
7033.979,0,-0.62,0,-0.43,0.01,0.01,0.13,1,0
7036.676,0,-0.62,0,-0.43,0.01,0.01,0.13,1,0
7039.021,0,-0.62,0,-0.43,0.01,0.01,0.13,1,0
7041.42,0,-0.62,0,-0.43,0.01,0.01,0.13,1,0
7044.022,0,-0.62,0,-0.43,0.01,0.01,0.13,1,0
7046.439,0,-0.62,0,-0.43,0.01,0.01,0.13,1,0
7049.109,0,-0.62,0,-0.43,0.01,0.01,0.13,1,0
7051.469,0,-0.62,0,-0.43,0.01,0.01,0.13,1,0
7054,0,-0.62,0,-0.43,0.01,0.01,0.13,1,0
7056.515,0,-0.62,0,-0.43,0.01,0.01,0.13,1,0
7059.004,0,-0.62,0,-0.43,0.01,0.01,0.13,1,0
7061.501,0,-0.62,0,-0.44,0.01,0.01,0.13,1,0
7063.887,0,-0.62,0,-0.44,0.01,0.01,0.13,1,0
7066.516,0,-0.62,0,-0.44,0.01,0.01,0.13,1,0
7068.944,0,-0.62,0,-0.44,0.01,0.01,0.13,1,0
7071.545,0,-0.62,0,-0.44,0.01,0.01,0.13,1,0
7073.973,0,-0.62,0,-0.44,0.01,0.01,0.13,1,0
7076.491,0,-0.62,0,-0.44,0.01,0.01,0.13,1,0
7079.017,0,-0.62,0,-0.44,0.01,0.01,0.13,1,0
7081.514,0,-0.62,0,-0.44,0.01,0.01,0.13,1,0
7083.984,0,-0.62,0,-0.44,0.01,0.01,0.13,1,0
7086.505,0,-0.62,0,-0.44,0.01,0.01,0.13,1,0
7089.006,0,-0.62,0,-0.44,0.01,0.01,0.13,1,0
7091.523,0,-0.62,0,-0.44,0.01,0.01,0.13,1,0
7094.007,0,-0.62,0,-0.44,0.01,0.01,0.13,1,0
7096.474,0,-0.62,0,-0.44,0.01,0.01,0.13,1,0
7099.016,0,-0.62,0,-0.44,0.01,0.01,0.13,1,0
7101.522,0,-0.62,0,-0.44,0.01,0.01,0.13,1,0
7103.985,0,-0.62,0,-0.44,0.01,0.01,0.13,1,0
7106.474,0,-0.62,0,-0.44,0.01,0.01,0.13,1,0
7108.98,0,-0.62,0,-0.44,0.01,0.01,0.13,1,0
7111.507,0,-0.62,0,-0.44,0.01,0.01,0.13,1,0
7113.921,0,-0.62,0,-0.44,0.01,0.01,0.13,1,0
7116.554,0,-0.62,0,-0.44,0.01,0.01,0.13,1,0
7119.013,0,-0.62,0,-0.44,0.01,0.01,0.13,1,0
7121.51,0,-0.62,0,-0.44,0.01,0.01,0.13,1,0
7123.998,0,-0.62,0,-0.44,0.01,0.01,0.13,1,0
7126.478,0,-0.62,0,-0.44,0.01,0.01,0.13,1,0
7129.047,0,-0.62,0,-0.44,0.01,0.01,0.13,1,0
7131.508,0,-0.62,0,-0.44,0.01,0.01,0.1,1,0
7133.996,0,-0.62,0,-0.44,0.01,0.01,0.1,1,0
7136.656,0,-0.62,0,-0.44,0.01,0.01,0.1,1,0
7139.034,0,-0.62,0,-0.44,0.01,0.01,0.1,1,0
7141.441,0,-0.62,0,-0.44,0.01,0.01,0.1,1,0
7144.005,0,-0.62,0,-0.44,0.01,0.01,0.1,1,0
7146.493,0,-0.62,0,-0.44,0.01,0.01,0.1,1,0
7148.967,0,-0.62,0,-0.44,0.01,0.01,0.1,1,0
7151.54,0,-0.62,0,-0.44,0.01,0.01,0.1,1,0
7153.988,0,-0.62,0,-0.44,0.01,0.01,0.1,1,0
7156.542,0,-0.62,0,-0.44,0.01,0.01,0.1,1,0
7158.945,0,-0.62,0,-0.44,0.01,0.01,0.1,1,0
7161.539,0,-0.62,0,-0.44,0.01,0.01,0.1,1,0
7163.932,0,-0.62,0,-0.44,0.01,0.01,0.1,1,0
7166.504,0,-0.62,0,-0.44,0.01,0.01,0.1,1,0
7168.989,0,-0.62,0,-0.44,0.01,0.01,0.1,1,0
7171.465,0,-0.62,0,-0.44,0.01,0.01,0.1,1,0
7173.991,0,-0.62,0,-0.44,0.01,0.01,0.1,1,0
7176.502,0,-0.62,0,-0.44,0.01,0.01,0.1,1,0
7179.041,0,-0.62,0,-0.44,0.01,0.01,0.1,1,0
7181.41,0,-0.62,0,-0.44,0.01,0.01,0.1,1,0
7184.059,0,-0.62,0,-0.44,0.01,0.01,0.1,1,0
7186.416,0,-0.62,0,-0.44,0.01,0.01,0.1,1,0
7189.026,0,-0.62,0,-0.44,0.01,0.01,0.1,1,0
7191.467,0,-0.62,0,-0.44,0.01,0.01,0.1,1,0
7194.047,0,-0.62,0,-0.44,0.01,0.01,0.1,1,0
7196.497,0,-0.62,0,-0.44,0.01,0.01,0.1,1,0
7199.069,0,-0.62,0,-0.44,0.01,0.01,0.1,1,0
7201.514,0,-0.62,0,-0.44,0.01,0.01,0.1,1,0
7203.95,0,-0.62,0,-0.44,0.01,0.01,0.1,1,0
7206.526,0,-0.62,0,-0.44,0.01,0.01,0.1,1,0
7208.872,0,-0.62,0,-0.44,0.01,0.01,0.1,1,0
7211.534,0,-0.62,0,-0.44,0.01,0.01,0.1,1,0
7213.924,0,-0.62,0,-0.44,0.01,0.01,0.1,1,0
7216.599,0,-0.62,0,-0.44,0.01,0.01,0.1,1,0
7218.973,0,-0.62,0,-0.44,0.01,0.01,0.1,1,0
7221.584,0,-0.62,0,-0.44,0.01,0.01,0.1,1,0
7224.015,0,-0.62,0,-0.44,0.01,0.01,0.1,1,0
7226.539,0,-0.62,0,-0.44,0.01,0.01,0.1,1,0
7229.057,0,-0.62,0,-0.44,0.01,0.01,0.1,1,0
7231.438,0,-0.62,0,-0.44,0.01,0.01,0.1,1,0
7234.008,0,-0.62,0,-0.44,0.01,0.01,0.1,1,0
7236.746,0,-0.62,0,-0.44,0.01,0.01,0.1,1,0
7239.038,0,-0.62,0,-0.44,0.01,0.01,0.1,1,0
7241.484,0,-0.62,0,-0.44,0.01,0.01,0.1,1,0
7244.094,0,-0.62,0,-0.44,0.01,0.01,0.1,1,0
7246.489,0,-0.62,0,-0.44,0.01,0.01,0.1,1,0
7249.015,0,-0.62,0,-0.44,0.01,0.01,0.1,1,0
7251.536,0,-0.62,0,-0.44,0.01,0.01,0.1,1,0
7253.996,0,-0.62,0,-0.44,0.01,0.01,0.1,1,0
7256.535,0,-0.62,0,-0.44,0.01,0.01,0.1,1,0
7258.895,0,-0.62,0,-0.44,0.01,0.01,0.1,1,0
7261.53,0,-0.62,0,-0.44,0.01,0.01,0.1,1,0
7263.947,0,-0.62,0,-0.44,0.01,0.01,0.1,1,0
7266.531,0,-0.62,0,-0.44,0.01,0.01,0.1,1,0
7269,0,-0.62,0,-0.44,0.01,0.01,0.1,1,0
7271.486,0,-0.62,0,-0.44,0.01,0.01,0.1,1,0
7274.055,0,-0.62,0,-0.44,0.01,0.01,0.1,1,0
7276.496,0,-0.62,0,-0.44,0.01,0.01,0.1,1,0
7279.008,0,-0.62,0,-0.44,0.01,0.01,0.1,1,0
7281.471,0,-0.62,0,-0.44,0.01,0.01,0.1,1,0
7284.004,0,-0.62,0,-0.44,0.01,0.01,0.1,1,0
7286.495,0,-0.62,0,-0.44,0.01,0.01,0.1,1,0
7289.019,0,-0.62,0,-0.44,0.01,0.01,0.1,1,0
7291.51,0,-0.62,0,-0.44,0.01,0.01,0.1,1,0
7293.961,0,-0.62,0,-0.44,0.01,0.01,0.1,1,0
7296.535,0,-0.62,0,-0.44,0.01,0.01,0.1,1,0
7298.944,0,-0.62,0,-0.44,0.01,0.01,0.1,1,0
7301.583,0,-0.62,0,-0.44,0.01,0.01,0.1,1,0
7303.981,0,-0.62,0,-0.44,0.01,0.01,0.1,1,0
7306.506,0,-0.62,0,-0.44,0.01,0.01,0.1,1,0
7308.988,0,-0.62,0,-0.44,0.01,0.01,0.1,1,0
7311.535,0,-0.62,0,-0.44,0.01,0.01,0.1,1,0
7314.023,0,-0.62,0,-0.44,0.01,0.01,0.1,1,0
7316.55,0,-0.62,0,-0.44,0.01,0.01,0.1,1,0
7319.034,0,-0.62,0,-0.44,0.01,0.01,0.1,1,0
7321.483,0,-0.62,0,-0.44,0.01,0.01,0.1,1,0
7324.035,0,-0.62,0,-0.44,0.01,0.01,0.1,1,0
7326.488,0,-0.62,0,-0.44,0.01,0.01,0.1,1,0
7329.028,0,-0.62,0,-0.44,0.01,0.01,0.1,1,0
7331.4,0,-0.62,0,-0.44,0.01,0.01,0.1,1,0
7334.074,0,-0.62,0,-0.44,0.01,0.01,0.08,1,0
7336.681,0,-0.62,0,-0.44,0.01,0.01,0.08,1,0
7339.001,0,-0.62,0,-0.44,0.01,0.01,0.08,1,0
7341.503,0,-0.62,0,-0.44,0.01,0.01,0.08,1,0
7343.972,0,-0.62,0,-0.44,0.01,0.01,0.08,1,0
7346.54,0,-0.62,0,-0.44,0.01,0.01,0.08,1,0
7348.966,0,-0.62,0,-0.44,0.01,0.01,0.08,1,0
7351.52,0,-0.62,0,-0.44,0.01,0.01,0.08,1,0
7353.933,0,-0.62,0,-0.44,0.01,0.01,0.08,1,0
7356.55,0,-0.62,0,-0.44,0.01,0.01,0.08,1,0
7358.944,0,-0.62,0,-0.44,0.01,0.01,0.08,1,0
7361.525,0,-0.62,0,-0.44,0.01,0.01,0.08,1,0
7363.995,0,-0.62,0,-0.44,0.01,0.01,0.08,1,0
7366.563,0,-0.62,0,-0.44,0.01,0.01,0.08,1,0
7368.99,0,-0.62,0,-0.44,0.01,0.01,0.08,1,0
7371.482,0,-0.62,0,-0.44,0.01,0.01,0.08,1,0
7373.999,0,-0.62,0,-0.44,0.01,0.01,0.08,1,0
7376.454,0,-0.62,0,-0.44,0.01,0.01,0.08,1,0
7379.036,0,-0.62,0,-0.44,0.01,0.01,0.08,1,0
7381.428,0,-0.62,0,-0.44,0.01,0.01,0.08,1,0
7384.045,0,-0.62,0,-0.44,0.01,0.01,0.08,1,0
7386.523,0,-0.62,0,-0.44,0.01,0.01,0.08,1,0
7388.999,0,-0.62,0,-0.44,0.01,0.01,0.08,1,0
7391.502,0,-0.62,0,-0.44,0.01,0.01,0.08,1,0
7394.021,0,-0.62,0,-0.44,0.01,0.01,0.08,1,0
7396.508,0,-0.62,0,-0.44,0.01,0.01,0.08,1,0
7398.998,0,-0.62,0,-0.43,0.01,0.01,0.08,1,0
7401.511,0,-0.62,0,-0.43,0.01,0.01,0.08,1,0
7403.918,0,-0.62,0,-0.43,0.01,0.01,0.08,1,0
7406.53,0,-0.62,0,-0.43,0.01,0.01,0.08,1,0
7408.973,0,-0.62,0,-0.43,0.01,0.01,0.08,1,0
7411.536,0,-0.62,0,-0.43,0.01,0.01,0.08,1,0
7413.989,0,-0.62,0,-0.43,0.01,0.01,0.08,1,0
7416.52,0,-0.62,0,-0.43,0.01,0.01,0.08,1,0
7418.994,0,-0.62,0,-0.43,0.01,0.01,0.08,1,0
7421.498,0,-0.62,0,-0.43,0.01,0.01,0.08,1,0
7424.08,0,-0.62,0,-0.43,0.01,0.01,0.08,1,0
7426.455,0,-0.62,0,-0.43,0.01,0.01,0.08,1,0
7429,0,-0.62,0,-0.43,0.01,0.01,0.08,1,0
7431.429,0,-0.62,0,-0.43,0.01,0.01,0.08,1,0
7434.086,0,-0.62,0,-0.43,0.01,0.01,0.08,1,0
7436.676,0,-0.62,0,-0.43,0.01,0.01,0.08,1,0
7438.959,0,-0.62,0,-0.43,0.01,0.01,0.08,1,0
7441.5,0,-0.62,0,-0.43,0.01,0.01,0.08,1,0
7443.976,0,-0.62,0,-0.43,0.01,0.01,0.08,1,0
7446.499,0,-0.62,0,-0.43,0.01,0.01,0.08,1,0
7448.936,0,-0.62,0,-0.43,0.01,0.01,0.08,1,0
7451.492,0,-0.62,0,-0.43,0.01,0.01,0.08,1,0
7454.046,0,-0.62,0,-0.43,0.01,0.01,0.08,1,0
7456.492,0,-0.62,0,-0.43,0.01,0.01,0.08,1,0
7458.974,0,-0.62,0,-0.43,0.01,0.01,0.08,1,0
7461.468,0,-0.62,0,-0.43,0.01,0.01,0.08,1,0
7464.021,0,-0.62,0,-0.43,0.01,0.01,0.08,1,0
7466.48,0,-0.62,0,-0.43,0.01,0.01,0.08,1,0
7469.048,0,-0.62,0,-0.43,0.01,0.01,0.08,1,0
7471.462,0,-0.62,0,-0.43,0.01,0.01,0.08,1,0
7474.032,0,-0.62,0,-0.43,0.01,0.01,0.08,1,0
7476.461,0,-0.62,0,-0.43,0.01,0.01,0.08,1,0
7478.984,0,-0.62,0,-0.43,0.01,0.01,0.08,1,0
7481.424,0,-0.62,0,-0.43,0.01,0.01,0.08,1,0
7484.047,0,-0.62,0,-0.43,0.01,0.01,0.08,1,0
7486.509,0,-0.62,0,-0.43,0.01,0.01,0.08,1,0
7488.956,0,-0.62,0,-0.43,0.01,0.01,0.08,1,0
7491.529,0,-0.62,0,-0.43,0.01,0.01,0.08,1,0
7493.942,0,-0.62,0,-0.43,0.01,0.01,0.08,1,0
7496.574,0,-0.62,0,-0.43,0.01,0.01,0.08,1,0
7498.876,0,-0.62,0,-0.43,0.01,0.01,0.08,1,0
7501.538,0,-0.62,0,-0.43,0.01,0.01,0.08,1,0
7503.917,0,-0.62,0,-0.43,0.01,0.01,0.08,1,0
7506.592,0,-0.62,0,-0.43,0.01,0.01,0.08,1,0
7508.981,0,-0.62,0,-0.43,0.01,0.01,0.08,1,0
7511.476,0,-0.62,0,-0.43,0.01,0.01,0.08,1,0
7514.034,0,-0.62,0,-0.43,0.01,0.01,0.08,1,0
7516.505,0,-0.62,0,-0.43,0.01,0.01,0.08,1,0
7519.014,0,-0.62,0,-0.43,0.01,0.01,0.08,1,0
7521.488,0,-0.62,0,-0.43,0.01,0.01,0.08,1,0
7524.044,0,-0.62,0,-0.43,0.01,0.01,0.08,1,0
7526.417,0,-0.62,0,-0.43,0.01,0.01,0.08,1,0
7529.069,0,-0.62,0,-0.43,0.01,0.01,0.08,1,0
7531.447,0,-0.62,0,-0.43,0.01,0.01,0.08,1,0
7534.057,0,-0.62,0,-0.43,0.01,0.01,0.08,1,0
7536.697,0,-0.62,0,-0.43,0.01,0.01,0.06,1,0
7539.049,0,-0.62,0,-0.43,0.01,0.01,0.06,1,0
7541.521,0,-0.62,0,-0.43,0.01,0.01,0.06,1,0
7543.969,0,-0.62,0,-0.43,0.01,0.01,0.06,1,0
7546.521,0,-0.62,0,-0.43,0.01,0.01,0.06,1,0
7548.891,0,-0.62,0,-0.43,0.01,0.01,0.06,1,0
7551.52,0,-0.62,0,-0.43,0.01,0.01,0.06,1,0
7553.951,0,-0.62,0,-0.43,0.01,0.01,0.06,1,0
7556.554,0,-0.62,0,-0.43,0.01,0.01,0.06,1,0
7559.005,0,-0.62,0,-0.43,0.01,0.01,0.06,1,0
7561.57,0,-0.62,0,-0.43,0.01,0.01,0.06,1,0
7564.002,0,-0.62,0,-0.43,0.01,0.01,0.06,1,0
7566.532,0,-0.62,0,-0.43,0.01,0.01,0.06,1,0
7569.01,0,-0.62,0,-0.43,0.01,0.01,0.06,1,0
7571.384,0,-0.62,0,-0.43,0.01,0.01,0.06,1,0
7574.031,0,-0.62,0,-0.43,0.01,0.01,0.06,1,0
7576.467,0,-0.62,0,-0.43,0.01,0.01,0.06,1,0
7579.06,0,-0.62,0,-0.43,0.01,0.01,0.06,1,0
7581.5,0,-0.62,0,-0.43,0.01,0.01,0.06,1,0
7583.965,0,-0.62,0,-0.43,0.01,0.01,0.06,1,0
7586.509,0,-0.62,0,-0.43,0.01,0.01,0.06,1,0
7589.107,0,-0.62,0,-0.43,0.01,0.01,0.06,1,0
7591.495,0,-0.62,0,-0.43,0.01,0.01,0.06,1,0
7593.968,0,-0.62,0,-0.43,0.01,0.01,0.06,1,0
7596.523,0,-0.62,0,-0.43,0.01,0.01,0.06,1,0
7599.039,0,-0.62,0,-0.43,0.01,0.01,0.06,1,0
7601.484,0,-0.62,0,-0.43,0.01,0.01,0.06,1,0
7604.002,0,-0.62,0,-0.43,0.01,0.01,0.06,1,0
7606.454,0,-0.62,0,-0.43,0.01,0.01,0.06,1,0
7609.032,0,-0.62,0,-0.43,0.01,0.01,0.06,1,0
7611.47,0,-0.62,0,-0.43,0.01,0.01,0.06,1,0
7613.97,0,-0.62,0,-0.43,0.01,0.01,0.06,1,0
7616.477,0,-0.62,0,-0.43,0.01,0.01,0.06,1,0
7619.052,0,-0.62,0,-0.43,0.01,0.01,0.06,1,0
7621.457,0,-0.62,0,-0.43,0.01,0.01,0.06,1,0
7623.997,0,-0.62,0,-0.43,0.01,0.01,0.06,1,0
7626.408,0,-0.62,0,-0.43,0.01,0.01,0.06,1,0
7629.031,0,-0.62,0,-0.43,0.01,0.01,0.06,1,0
7631.496,0,-0.62,0,-0.43,0.01,0.01,0.06,1,0
7633.957,0,-0.62,0,-0.43,0.01,0.01,0.06,1,0
7636.714,0,-0.62,0,-0.43,0.01,0.01,0.06,1,0
7638.982,0,-0.62,0,-0.43,0.01,0.01,0.06,1,0
7641.559,0,-0.62,0,-0.43,0.01,0.01,0.06,1,0
7643.937,0,-0.62,0,-0.43,0.01,0.01,0.06,1,0
7646.495,0,-0.62,0,-0.43,0.01,0.01,0.06,1,0
7648.934,0,-0.62,0,-0.43,0.01,0.01,0.06,1,0
7651.497,0,-0.62,0,-0.43,0.01,0.01,0.06,1,0
7653.989,0,-0.62,0,-0.43,0.01,0.01,0.06,1,0
7656.511,0,-0.62,0,-0.43,0.01,0.01,0.06,1,0
7659.035,0,-0.62,0,-0.43,0.01,0.01,0.06,1,0
7661.473,0,-0.62,0,-0.43,0.01,0.01,0.06,1,0
7664.025,0,-0.62,0,-0.43,0.01,0.01,0.06,1,0
7666.383,0,-0.62,0,-0.43,0.01,0.01,0.06,1,0
7669.039,0,-0.62,0,-0.43,0.01,0.01,0.06,1,0
7671.408,0,-0.62,0,-0.43,0.01,0.01,0.06,1,0
7674.013,0,-0.62,0,-0.43,0.01,0.01,0.06,1,0
7676.443,0,-0.62,0,-0.43,0.01,0.01,0.06,1,0
7679.09,0,-0.62,0,-0.43,0.01,0.01,0.06,1,0
7681.475,0,-0.62,0,-0.43,0.01,0.01,0.06,1,0
7683.953,0,-0.62,0,-0.43,0.01,0.01,0.06,1,0
7686.519,0,-0.62,0,-0.43,0.01,0.01,0.06,1,0
7688.965,0,-0.62,0,-0.43,0.01,0.01,0.06,1,0
7691.587,0,-0.62,0,-0.43,0.01,0.01,0.06,1,0
7693.886,0,-0.62,0,-0.43,0.01,0.01,0.06,1,0
7696.536,0,-0.62,0,-0.43,0.01,0.01,0.06,1,0
7698.924,0,-0.62,0,-0.43,0.01,0.01,0.06,1,0
7701.551,0,-0.62,0,-0.43,0.01,0.01,0.06,1,0
7703.975,0,-0.62,0,-0.43,0.01,0.01,0.06,1,0
7706.552,0,-0.62,0,-0.43,0.01,0.01,0.06,1,0
7709.018,0,-0.62,0,-0.43,0.01,0.01,0.06,1,0
7711.451,0,-0.62,0,-0.43,0.01,0.01,0.06,1,0
7713.985,0,-0.62,0,-0.43,0.01,0.01,0.06,1,0
7716.451,0,-0.62,0,-0.43,0.01,0.01,0.06,1,0
7719.008,0,-0.62,0,-0.42,0.01,0.01,0.06,1,0
7721.462,0,-0.62,0,-0.42,0.01,0.01,0.06,1,0
7724.082,0,-0.62,0,-0.43,0.01,0.01,0.06,1,0
7726.459,0,-0.62,0,-0.42,0.01,0.01,0.06,1,0
7729.061,0,-0.62,0,-0.42,0.01,0.01,0.06,1,0
7731.506,0,-0.62,0,-0.42,0.01,0.01,0.06,1,0
7734.077,0,-0.62,0,-0.42,0.01,0.01,0.06,1,0
7736.664,0,-0.62,0,-0.42,0.01,0.01,0.06,1,0
7738.986,0,-0.62,0,-0.42,0.01,0.01,0.05,1,0
7741.51,0,-0.62,0,-0.42,0.01,0.01,0.05,1,0
7743.918,0,-0.62,0,-0.42,0.01,0.01,0.05,1,0
7746.529,0,-0.62,0,-0.42,0.01,0.01,0.05,1,0
7748.969,0,-0.62,0,-0.42,0.01,0.01,0.05,1,0
7751.463,0,-0.62,0,-0.42,0.01,0.01,0.05,1,0
7753.987,0,-0.62,0,-0.42,0.01,0.01,0.05,1,0
7756.57,0,-0.62,0,-0.42,0.01,0.01,0.05,1,0
7759.011,0,-0.62,0,-0.42,0.01,0.01,0.05,1,0
7761.51,0,-0.62,0,-0.42,0.01,0.01,0.05,1,0
7764.017,0,-0.62,0,-0.42,0.01,0.01,0.05,1,0
7766.453,0,-0.62,0,-0.42,0.01,0.01,0.05,1,0
7769.014,0,-0.62,0,-0.42,0.01,0.01,0.05,1,0
7771.467,0,-0.62,0,-0.42,0.01,0.01,0.05,1,0
7774.061,0,-0.62,0,-0.43,0.01,0.01,0.05,1,0
7776.524,0,-0.62,0,-0.43,0.01,0.01,0.05,1,0
7778.954,0,-0.62,0,-0.43,0.01,0.01,0.05,1,0
7781.56,0,-0.62,0,-0.43,0.01,0.01,0.05,1,0
7784.006,0,-0.62,0,-0.43,0.01,0.01,0.05,1,0
7786.501,0,-0.62,0,-0.43,0.01,0.01,0.05,1,0
7788.939,0,-0.62,0,-0.43,0.01,0.01,0.05,1,0
7791.523,0,-0.62,0,-0.43,0.01,0.01,0.05,1,0
7794.046,0,-0.62,0,-0.43,0.01,0.01,0.05,1,0
7796.531,0,-0.62,0,-0.43,0.01,0.01,0.05,1,0
7799.008,0,-0.62,0,-0.43,0.01,0.01,0.05,1,0
7801.488,0,-0.62,0,-0.43,0.01,0.01,0.05,1,0
7804.017,0,-0.62,0,-0.43,0.01,0.01,0.05,1,0
7806.524,0,-0.62,0,-0.43,0.01,0.01,0.05,1,0
7809.054,0,-0.62,0,-0.43,0.01,0.01,0.05,1,0
7811.418,0,-0.62,0,-0.43,0.01,0.01,0.05,1,0
7814.091,0,-0.62,0,-0.43,0.01,0.01,0.05,1,0
7816.459,0,-0.62,0,-0.43,0.01,0.01,0.05,1,0
7819.003,0,-0.62,0,-0.43,0.01,0.01,0.05,1,0
7821.456,0,-0.62,0,-0.43,0.01,0.01,0.05,1,0
7824.055,0,-0.62,0,-0.43,0.01,0.01,0.05,1,0
7826.519,0,-0.62,0,-0.43,0.01,0.01,0.05,1,0
7829.042,0,-0.62,0,-0.43,0.01,0.01,0.05,1,0
7831.526,0,-0.62,0,-0.43,0.01,0.01,0.05,1,0
7833.979,0,-0.62,0,-0.43,0.01,0.01,0.05,1,0
7836.703,0,-0.62,0,-0.43,0.01,0.01,0.05,1,0
7838.879,0,-0.62,0,-0.43,0.01,0.01,0.05,1,0
7841.531,0,-0.62,0,-0.43,0.01,0.01,0.05,1,0
7843.958,0,-0.62,0,-0.43,0.01,0.01,0.05,1,0
7846.57,0,-0.62,0,-0.43,0.01,0.01,0.05,1,0
7848.97,0,-0.62,0,-0.43,0.01,0.01,0.05,1,0
7851.578,0,-0.62,0,-0.43,0.01,0.01,0.05,1,0
7854.023,0,-0.62,0,-0.43,0.01,0.01,0.05,1,0
7856.529,0,-0.62,0,-0.43,0.01,0.01,0.05,1,0
7859.002,0,-0.62,0,-0.43,0.01,0.01,0.05,1,0
7861.43,0,-0.62,0,-0.43,0.01,0.01,0.05,1,0
7864.025,0,-0.62,0,-0.43,0.01,0.01,0.05,1,0
7866.419,0,-0.62,0,-0.43,0.01,0.01,0.05,1,0
7869.039,0,-0.62,0,-0.43,0.01,0.01,0.05,1,0
7871.475,0,-0.62,0,-0.43,0.01,0.01,0.05,1,0
7874.05,0,-0.62,0,-0.43,0.01,0.01,0.05,1,0
7876.501,0,-0.62,0,-0.43,0.01,0.01,0.05,1,0
7879.006,0,-0.62,0,-0.43,0.01,0.01,0.05,1,0
7881.484,0,-0.62,0,-0.43,0.01,0.01,0.05,1,0
7883.977,0,-0.62,0,-0.43,0.01,0.01,0.05,1,0
7886.528,0,-0.62,0,-0.43,0.01,0.01,0.05,1,0
7888.89,0,-0.62,0,-0.43,0.01,0.01,0.05,1,0
7891.516,0,-0.62,0,-0.43,0.01,0.01,0.05,1,0
7893.938,0,-0.62,0,-0.43,0.01,0.01,0.05,1,0
7896.575,0,-0.62,0,-0.43,0.01,0.01,0.05,1,0
7898.975,0,-0.62,0,-0.43,0.01,0.01,0.05,1,0
7901.481,0,-0.62,0,-0.43,0.01,0.01,0.05,1,0
7904.023,0,-0.62,0,-0.43,0.01,0.01,0.05,1,0
7906.515,0,-0.62,0,-0.43,0.01,0.01,0.05,1,0
7909.012,0,-0.62,0,-0.43,0.01,0.01,0.05,1,0
7911.531,0,-0.62,0,-0.43,0.01,0.01,0.05,1,0
7914.003,0,-0.62,0,-0.43,0.01,0.01,0.05,1,0
7916.469,0,-0.62,0,-0.43,0.01,0.01,0.05,1,0
7919.077,0,-0.62,0,-0.43,0.01,0.01,0.05,1,0
7921.495,0,-0.62,0,-0.43,0.01,0.01,0.05,1,0
7923.952,0,-0.62,0,-0.43,0.01,0.01,0.05,1,0
7926.537,0,-0.62,0,-0.43,0.01,0.01,0.05,1,0
7928.973,0,-0.62,0,-0.43,0.01,0.01,0.05,1,0
7931.505,0,-0.62,0,-0.43,0.01,0.01,0.05,1,0
7933.94,0,-0.62,0,-0.43,0.01,0.01,0.05,1,0
7936.668,0,-0.62,0,-0.43,0.01,0.01,0.05,1,0
7938.932,0,-0.62,0,-0.43,0.01,0.01,0.05,1,0
7941.54,0,-0.62,0,-0.43,0.01,0.01,0.04,1,0
7943.982,0,-0.62,0,-0.43,0.01,0.01,0.04,1,0
7946.459,0,-0.62,0,-0.43,0.01,0.01,0.04,1,0
7949.033,0,-0.62,0,-0.43,0.01,0.01,0.04,1,0
7951.481,0,-0.62,0,-0.43,0.01,0.01,0.04,1,0
7954.032,0,-0.62,0,-0.43,0.01,0.01,0.04,1,0
7956.483,0,-0.62,0,-0.43,0.01,0.01,0.04,1,0
7959.02,0,-0.62,0,-0.43,0.01,0.01,0.04,1,0
7961.405,0,-0.62,0,-0.43,0.01,0.01,0.04,1,0
7964.064,0,-0.62,0,-0.43,0.01,0.01,0.04,1,0
7966.441,0,-0.62,0,-0.43,0.01,0.01,0.04,1,0
7969.006,0,-0.62,0,-0.43,0.01,0.01,0.04,1,0
7971.485,0,-0.62,0,-0.43,0.01,0.01,0.04,1,0
7973.948,0,-0.62,0,-0.43,0.01,0.01,0.04,1,0
7976.552,0,-0.62,0,-0.43,0.01,0.01,0.04,1,0
7978.96,0,-0.62,0,-0.43,0.01,0.01,0.04,1,0
7981.521,0,-0.62,0,-0.43,0.01,0.01,0.04,1,0
7983.887,0,-0.62,0,-0.43,0.01,0.01,0.04,1,0
7986.548,0,-0.62,0,-0.43,0.01,0.01,0.04,1,0
7988.949,0,-0.62,0,-0.43,0.01,0.01,0.04,1,0
7991.537,0,-0.62,0,-0.43,0.01,0.01,0.04,1,0
7993.992,0,-0.62,0,-0.43,0.01,0.01,0.04,1,0
7996.59,0,-0.62,0,-0.43,0.01,0.01,0.04,1,0
7999.003,0,-0.62,0,-0.43,0.01,0.01,0.04,1,0
8001.509,0,-0.62,0,-0.43,0.01,0.01,0.04,1,0
8003.989,0,-0.62,0,-0.43,0.01,0.01,0.04,1,0
8006.375,0,-0.62,0,-0.43,0.01,0.01,0.04,1,0
8009.051,0,-0.62,0,-0.43,0.01,0.01,0.04,1,0
8011.416,0,-0.62,0,-0.43,0.01,0.01,0.04,1,0
8014.042,0,-0.62,0,-0.43,0.01,0.01,0.04,1,0
8016.453,0,-0.62,0,-0.43,0.01,0.01,0.04,1,0
8019.061,0,-0.62,0,-0.43,0.01,0.01,0.04,1,0
8021.491,0,-0.62,0,-0.43,0.01,0.01,0.04,1,0
8024.029,0,-0.62,0,-0.43,0.01,0.01,0.04,1,0
8026.497,0,-0.62,0,-0.43,0.01,0.01,0.04,1,0
8029.011,0,-0.62,0,-0.43,0.01,0.01,0.04,1,0
8031.507,0,-0.62,0,-0.43,0.01,0.01,0.04,1,0
8034.007,0,-0.62,0,-0.43,0.01,0.01,0.04,1,0
8036.652,0,-0.62,0,-0.43,0.01,0.01,0.04,1,0
8038.937,0,-0.62,0,-0.43,0.01,0.01,0.04,1,0
8041.51,0,-0.62,0,-0.43,0.01,0.01,0.04,1,0
8043.98,0,-0.62,0,-0.43,0.01,0.01,0.04,1,0
8046.579,0,-0.62,0,-0.43,0.01,0.01,0.04,1,0
8049.011,0,-0.62,0,-0.43,0.01,0.01,0.04,1,0
8051.482,0,-0.62,0,-0.43,0.01,0.01,0.04,1,0
8054.056,0,-0.62,0,-0.43,0.01,0.01,0.04,1,0
8056.459,0,-0.62,0,-0.43,0.01,0.01,0.04,1,0
8059.005,0,-0.62,0,-0.43,0.01,0.01,0.04,1,0
8061.487,0,-0.62,0,-0.43,0.01,0.01,0.04,1,0
8064.035,0,-0.62,0,-0.43,0.01,0.01,0.04,1,0
8066.489,0,-0.62,0,-0.43,0.01,0.01,0.04,1,0
8068.974,0,-0.62,0,-0.43,0.01,0.01,0.04,1,0
8071.499,0,-0.62,0,-0.43,0.01,0.01,0.04,1,0
8073.988,0,-0.62,0,-0.43,0.01,0.01,0.04,1,0
8076.545,0,-0.62,0,-0.43,0.01,0.01,0.04,1,0
8078.922,0,-0.62,0,-0.43,0.01,0.01,0.04,1,0
8081.492,0,-0.62,0,-0.43,0.01,0.01,0.04,1,0
8083.936,0,-0.62,0,-0.43,0.01,0.01,0.04,1,0
8086.491,0,-0.62,0,-0.43,0.01,0.01,0.04,1,0
8088.98,0,-0.62,0,-0.43,0.01,0.01,0.04,1,0
8091.465,0,-0.62,0,-0.43,0.01,0.01,0.04,1,0
8094.017,0,-0.62,0,-0.43,0.01,0.01,0.04,1,0
8096.491,0,-0.62,0,-0.43,0.01,0.01,0.04,1,0
8099.045,0,-0.62,0,-0.43,0.01,0.01,0.04,1,0
8101.392,0,-0.62,0,-0.43,0.01,0.01,0.04,1,0
8104.078,0,-0.62,0,-0.43,0.01,0.01,0.04,1,0
8106.388,0,-0.62,0,-0.43,0.01,0.01,0.04,1,0
8109.016,0,-0.62,0,-0.43,0.01,0.01,0.04,1,0
8111.442,0,-0.62,0,-0.43,0.01,0.01,0.04,1,0
8114.085,0,-0.62,0,-0.43,0.01,0.01,0.04,1,0
8116.518,0,-0.62,0,-0.43,0.01,0.01,0.04,1,0
8118.977,0,-0.62,0,-0.43,0.01,0.01,0.04,1,0
8121.538,0,-0.62,0,-0.43,0.01,0.01,0.04,1,0
8124.007,0,-0.62,0,-0.43,0.01,0.01,0.04,1,0
8126.543,0,-0.62,0,-0.43,0.01,0.01,0.04,1,0
8128.929,0,-0.62,0,-0.43,0.01,0.01,0.04,1,0
8131.535,0,-0.62,0,-0.43,0.01,0.01,0.04,1,0
8133.921,0,-0.62,0,-0.43,0.01,0.01,0.04,1,0
8136.7,0,-0.62,0,-0.43,0.01,0.01,0.04,1,0
8138.979,0,-0.62,0,-0.43,0.01,0.01,0.04,1,0
8141.487,0,-0.62,0,-0.43,0.01,0.01,0.04,1,0
8144.031,0,-0.62,0,-0.43,0.01,0.01,0.03,1,0
8146.482,0,-0.62,0,-0.43,0.01,0.01,0.03,1,0
8149.053,0,-0.62,0,-0.43,0.01,0.01,0.03,1,0
8151.437,0,-0.62,0,-0.43,0.01,0.01,0.03,1,0
8154.029,0,-0.62,0,-0.43,0.01,0.01,0.03,1,0
8156.439,0,-0.62,0,-0.43,0.01,0.01,0.03,1,0
8159.05,0,-0.62,0,-0.43,0.01,0.01,0.03,1,0
8161.46,0,-0.62,0,-0.43,0.01,0.01,0.03,1,0
8164.057,0,-0.62,0,-0.43,0.01,0.01,0.03,1,0
8166.489,0,-0.62,0,-0.43,0.01,0.01,0.03,1,0
8169.049,0,-0.62,0,-0.43,0.01,0.01,0.03,1,0
8171.52,0,-0.62,0,-0.43,0.01,0.01,0.03,1,0
8173.965,0,-0.62,0,-0.43,0.01,0.01,0.03,1,0
8176.505,0,-0.62,0,-0.43,0.01,0.01,0.03,1,0
8178.878,0,-0.62,0,-0.43,0.01,0.01,0.03,1,0
8181.521,0,-0.62,0,-0.43,0.01,0.01,0.03,1,0
8183.924,0,-0.62,0,-0.43,0.01,0.01,0.03,1,0
8186.565,0,-0.62,0,-0.43,0.01,0.01,0.03,1,0
8188.973,0,-0.62,0,-0.43,0.01,0.01,0.03,1,0
8191.521,0,-0.62,0,-0.43,0.01,0.01,0.03,1,0
8193.997,0,-0.62,0,-0.43,0.01,0.01,0.03,1,0
8196.539,0,-0.62,0,-0.43,0.01,0.01,0.03,1,0
8198.991,0,-0.62,0,-0.43,0.01,0.01,0.03,1,0
8201.444,0,-0.62,0,-0.43,0.01,0.01,0.03,1,0
8204.009,0,-0.62,0,-0.43,0.01,0.01,0.03,1,0
8206.436,0,-0.62,0,-0.43,0.01,0.01,0.03,1,0
8209.04,0,-0.62,0,-0.43,0.01,0.01,0.03,1,0
8211.515,0,-0.62,0,-0.43,0.01,0.01,0.03,1,0
8214.041,0,-0.62,0,-0.43,0.01,0.01,0.03,1,0
8216.53,0,-0.62,0,-0.43,0.01,0.01,0.03,1,0
8219.081,0,-0.62,0,-0.43,0.01,0.01,0.03,1,0
8221.487,0,-0.62,0,-0.43,0.01,0.01,0.03,1,0
8223.993,0,-0.62,0,-0.43,0.01,0.01,0.03,1,0
8226.514,0,-0.62,0,-0.43,0.01,0.01,0.03,1,0
8229.041,0,-0.62,0,-0.43,0.01,0.01,0.03,1,0
8231.515,0,-0.62,0,-0.43,0.01,0.01,0.03,1,0
8234.016,0,-0.62,0,-0.43,0.01,0.01,0.03,1,0
8236.697,0,-0.62,0,-0.43,0.01,0.01,0.03,1,0
8238.998,0,-0.62,0,-0.43,0.01,0.01,0.03,1,0
8241.488,0,-0.62,0,-0.43,0.01,0.01,0.03,1,0
8244.031,0,-0.62,0,-0.43,0.01,0.01,0.03,1,0
8246.458,0,-0.62,0,-0.43,0.01,0.01,0.03,1,0
8249.07,0,-0.62,0,-0.43,0.01,0.01,0.03,1,0
8251.414,0,-0.62,0,-0.43,0.01,0.01,0.03,1,0
8254.091,0,-0.62,0,-0.43,0.01,0.01,0.03,1,0
8256.515,0,-0.62,0,-0.43,0.01,0.01,0.03,1,0
8259.049,0,-0.62,0,-0.43,0.01,0.01,0.03,1,0
8261.513,0,-0.62,0,-0.43,0.01,0.01,0.03,1,0
8263.96,0,-0.62,0,-0.43,0.01,0.01,0.03,1,0
8266.525,0,-0.62,0,-0.43,0.01,0.01,0.03,1,0
8268.975,0,-0.62,0,-0.43,0.01,0.01,0.03,1,0
8271.579,0,-0.62,0,-0.43,0.01,0.01,0.03,1,0
8274.019,0,-0.62,0,-0.43,0.01,0.01,0.03,1,0
8276.531,0,-0.62,0,-0.43,0.01,0.01,0.03,1,0
8278.927,0,-0.62,0,-0.43,0.01,0.01,0.03,1,0
8281.524,0,-0.62,0,-0.43,0.01,0.01,0.03,1,0
8283.992,0,-0.62,0,-0.43,0.01,0.01,0.03,1,0
8286.558,0,-0.62,0,-0.43,0.01,0.01,0.03,1,0
8289.019,0,-0.62,0,-0.43,0.01,0.01,0.03,1,0
8291.491,0,-0.62,0,-0.43,0.01,0.01,0.03,1,0
8294.035,0,-0.62,0,-0.43,0.01,0.01,0.03,1,0
8296.468,0,-0.62,0,-0.43,0.01,0.01,0.03,1,0
8299.036,0,-0.62,0,-0.43,0.01,0.01,0.03,1,0
8301.406,0,-0.62,0,-0.43,0.01,0.01,0.03,1,0
8304.033,0,-0.62,0,-0.43,0.01,0.01,0.03,1,0
8306.449,0,-0.62,0,-0.43,0.01,0.01,0.03,1,0
8309.09,0,-0.62,0,-0.43,0.01,0.01,0.03,1,0
8311.473,0,-0.62,0,-0.43,0.01,0.01,0.03,1,0
8314.098,0,-0.62,0,-0.43,0.01,0.01,0.03,1,0
8316.543,0,-0.62,0,-0.43,0.01,0.01,0.03,1,0
8318.967,0,-0.62,0,-0.43,0.01,0.01,0.03,1,0
8321.515,0,-0.62,0,-0.43,0.01,0.01,0.03,1,0
8323.949,0,-0.62,0,-0.43,0.01,0.01,0.03,1,0
8326.521,0,-0.62,0,-0.43,0.01,0.01,0.03,1,0
8328.931,0,-0.62,0,-0.43,0.01,0.01,0.03,1,0
8331.56,0,-0.62,0,-0.43,0.01,0.01,0.03,1,0
8333.992,0,-0.62,0,-0.43,0.01,0.01,0.03,1,0
8336.692,0,-0.62,0,-0.43,0.01,0.01,0.03,1,0
8338.996,0,-0.62,0,-0.43,0.01,0.01,0.03,1,0
8341.476,0,-0.62,0,-0.43,0.01,0.01,0.03,1,0
8344.011,0,-0.62,0,-0.43,0.01,0.01,0.03,1,0
8346.497,0,-0.62,0,-0.43,0.01,0.01,0.02,1,0
8349.001,0,-0.62,0,-0.43,0.01,0.01,0.02,1,0
8351.42,0,-0.62,0,-0.43,0.01,0.01,0.02,1,0
8354.008,0,-0.62,0,-0.43,0.01,0.01,0.02,1,0
8356.465,0,-0.62,0,-0.43,0.01,0.01,0.02,1,0
8358.983,0,-0.62,0,-0.43,0.01,0.01,0.02,1,0
8361.485,0,-0.62,0,-0.43,0.01,0.01,0.02,1,0
8364.012,0,-0.62,0,-0.43,0.01,0.01,0.02,1,0
8366.469,0,-0.62,0,-0.43,0.01,0.01,0.02,1,0
8369.019,0,-0.62,0,-0.43,0.01,0.01,0.02,1,0
8371.498,0,-0.62,0,-0.43,0.01,0.01,0.02,1,0
8373.987,0,-0.62,0,-0.43,0.01,0.01,0.02,1,0
8376.526,0,-0.62,0,-0.43,0.01,0.01,0.02,1,0
8378.958,0,-0.62,0,-0.43,0.01,0.01,0.02,1,0
8381.528,0,-0.62,0,-0.43,0.01,0.01,0.02,1,0
8384.01,0,-0.62,0,-0.43,0.01,0.01,0.02,1,0
8386.488,0,-0.62,0,-0.43,0.01,0.01,0.02,1,0
8388.968,0,-0.62,0,-0.43,0.01,0.01,0.02,1,0
8391.462,0,-0.62,0,-0.43,0.01,0.01,0.02,1,0
8393.999,0,-0.62,0,-0.43,0.01,0.01,0.02,1,0
8396.523,0,-0.62,0,-0.43,0.01,0.01,0.02,1,0
8399.015,0,-0.62,0,-0.43,0.01,0.01,0.02,1,0
8401.443,0,-0.62,0,-0.43,0.01,0.01,0.02,1,0
8404.056,0,-0.62,0,-0.43,0.01,0.01,0.02,1,0
8406.505,0,-0.62,0,-0.43,0.01,0.01,0.02,1,0
8408.982,0,-0.62,0,-0.43,0.01,0.01,0.02,1,0
8411.541,0,-0.62,0,-0.43,0.01,0.01,0.02,1,0
8414.003,0,-0.62,0,-0.43,0.01,0.01,0.02,1,0
8416.555,0,-0.62,0,-0.43,0.01,0.01,0.02,1,0
8418.874,0,-0.62,0,-0.43,0.01,0.01,0.02,1,0
8421.514,0,-0.62,0,-0.43,0.01,0.01,0.02,1,0
8423.959,0,-0.62,0,-0.43,0.01,0.01,0.02,1,0
8426.501,0,-0.62,0,-0.43,0.01,0.01,0.02,1,0
8429.011,0,-0.62,0,-0.43,0.01,0.01,0.02,1,0
8431.488,0,-0.62,0,-0.43,0.01,0.01,0.02,1,0
8434.013,0,-0.62,0,-0.43,0.01,0.01,0.02,1,0
8436.687,0,-0.62,0,-0.43,0.01,0.01,0.02,1,0
8438.984,0,-0.62,0,-0.43,0.01,0.01,0.02,1,0
8441.471,0,-0.62,0,-0.43,0.01,0.01,0.02,1,0
8444.04,0,-0.62,0,-0.43,0.01,0.01,0.02,1,0
8446.421,0,-0.62,0,-0.43,0.01,0.01,0.02,1,0
8449.011,0,-0.62,0,-0.43,0.01,0.01,0.02,1,0
8451.434,0,-0.62,0,-0.43,0.01,0.01,0.02,1,0
8454.081,0,-0.62,0,-0.43,0.01,0.01,0.02,1,0
8456.516,0,-0.62,0,-0.43,0.01,0.01,0.02,1,0
8458.991,0,-0.62,0,-0.43,0.01,0.01,0.02,1,0
8461.516,0,-0.62,0,-0.43,0.01,0.01,0.02,1,0
8463.957,0,-0.62,0,-0.43,0.01,0.01,0.02,1,0
8466.562,0,-0.62,0,-0.43,0.01,0.01,0.02,1,0
8468.894,0,-0.62,0,-0.43,0.01,0.01,0.02,1,0
8471.531,0,-0.62,0,-0.43,0.01,0.01,0.02,1,0
8473.919,0,-0.62,0,-0.43,0.01,0.01,0.02,1,0
8476.595,0,-0.62,0,-0.43,0.01,0.01,0.02,1,0
8478.986,0,-0.62,0,-0.43,0.01,0.01,0.02,1,0
8481.577,0,-0.62,0,-0.43,0.01,0.01,0.02,1,0
8484.003,0,-0.62,0,-0.43,0.01,0.01,0.02,1,0
8486.528,0,-0.62,0,-0.43,0.01,0.01,0.02,1,0
8489.037,0,-0.62,0,-0.43,0.01,0.01,0.02,1,0
8491.443,0,-0.62,0,-0.43,0.01,0.01,0.02,1,0
8494.014,0,-0.62,0,-0.43,0.01,0.01,0.02,1,0
8496.431,0,-0.62,0,-0.43,0.01,0.01,0.02,1,0
8499.064,0,-0.61,0,-0.43,0.01,0.01,0.02,1,0
8501.477,0,-0.61,0,-0.43,0.01,0.01,0.02,1,0
8504.086,0,-0.61,0,-0.43,0.01,0.01,0.02,1,0
8506.49,0,-0.61,0,-0.43,0.01,0.01,0.02,1,0
8509.01,0,-0.61,0,-0.43,0.01,0.01,0.02,1,0
8511.467,0,-0.61,0,-0.43,0.01,0.01,0.02,1,0
8514.003,0,-0.62,0,-0.43,0.01,0.01,0.02,1,0
8516.53,0,-0.62,0,-0.43,0.01,0.01,0.02,1,0
8519.039,0,-0.62,0,-0.43,0.01,0.01,0.02,1,0
8521.543,0,-0.61,0,-0.43,0.01,0.01,0.02,1,0
8523.936,0,-0.61,0,-0.43,0.01,0.01,0.02,1,0
8526.567,0,-0.61,0,-0.43,0.01,0.01,0.02,1,0
8529.013,0,-0.61,0,-0.43,0.01,0.01,0.02,1,0
8531.495,0,-0.61,0,-0.43,0.01,0.01,0.02,1,0
8534.028,0,-0.61,0,-0.43,0.01,0.01,0.02,1,0
8536.702,0,-0.61,0,-0.43,0.01,0.01,0.02,1,0
8539.008,0,-0.61,0,-0.43,0.01,0.01,0.02,1,0
8541.518,0,-0.61,0,-0.43,0.01,0.01,0.02,1,0
8544.015,0,-0.62,0,-0.43,0.01,0.01,0.02,1,0
8546.414,0,-0.62,0,-0.43,0.01,0.01,0.02,1,0
8549.098,0,-0.62,0,-0.43,0.01,0.01,0.02,1,0
8551.477,0,-0.62,0,-0.43,0.01,0.01,0.02,1,0
8553.995,0,-0.62,0,-0.43,0.01,0.01,0.02,1,0
8556.524,0,-0.62,0,-0.43,0.01,0.01,0.02,1,0
8559.009,0,-0.62,0,-0.43,0.01,0.01,0.02,1,0
8561.511,0,-0.62,0,-0.43,0.01,0.01,0.02,1,0
8563.984,0,-0.62,0,-0.43,0.01,0.01,0.02,1,0
8566.513,0,-0.62,0,-0.43,0.01,0.01,0.02,1,0
8568.98,0,-0.62,0,-0.43,0.01,0.01,0.02,1,0
8571.547,0,-0.62,0,-0.43,0.01,0.01,0.02,1,0
8573.987,0,-0.62,0,-0.43,0.01,0.01,0.02,1,0
8576.556,0,-0.62,0,-0.43,0.01,0.01,0.02,1,0
8579.02,0,-0.62,0,-0.43,0.01,0.01,0.02,1,0
8581.482,0,-0.62,0,-0.43,0.01,0.01,0.02,1,0
8584.028,0,-0.62,0,-0.43,0.01,0.01,0.02,1,0
8586.478,0,-0.62,0,-0.43,0.01,0.01,0.02,1,0
8589.091,0,-0.62,0,-0.43,0.01,0.01,0.02,1,0
8591.444,0,-0.62,0,-0.43,0.01,0.01,0.02,1,0
8594.05,0,-0.62,0,-0.43,0.01,0.01,0.02,1,0
8596.449,0,-0.62,0,-0.43,0.01,0.01,0.02,1,0
8598.965,0,-0.62,0,-0.43,0.01,0.01,0.02,1,0
8601.496,0,-0.62,0,-0.43,0.01,0.01,0.02,1,0
8603.972,0,-0.62,0,-0.43,0.01,0.01,0.02,1,0
8606.548,0,-0.62,0,-0.43,0.01,0.01,0.02,1,0
8608.976,0,-0.62,0,-0.43,0.01,0.01,0.02,1,0
8611.566,0,-0.62,0,-0.43,0.01,0.01,0.02,1,0
8613.979,0,-0.62,0,-0.43,0.01,0.01,0.02,1,0
8616.535,0,-0.62,0,-0.43,0.01,0.01,0.02,1,0
8618.939,0,-0.62,0,-0.43,0.01,0.01,0.02,1,0
8621.535,0,-0.62,0,-0.43,0.01,0.01,0.02,1,0
8624.001,0,-0.62,0,-0.43,0.01,0.01,0.02,1,0
8626.514,0,-0.62,0,-0.43,0.01,0.01,0.02,1,0
8629.016,0,-0.62,0,-0.43,0.01,0.01,0.02,1,0
8631.491,0,-0.62,0,-0.43,0.01,0.01,0.02,1,0
8634.042,0,-0.62,0,-0.43,0.01,0.01,0.02,1,0
