time_boot_ms,C,Q1,Q2,Q3,Q4
6135.644,2,1,0,0,0
6176.295,2,1,0,0,0
6216.229,2,1,0,0,0
6256.246,2,1,0,0,0
6296.245,2,1,0,0,0
6336.284,2,1,0,0,0
6376.296,2,1,0,0,0
6416.281,2,1,0,0,0
6456.218,2,1,0,0,0
6496.251,2,1,0,0,0
6536.253,2,1,0,0,0
6576.293,2,1,0,0,0
6616.278,2,1,0,0,0
6656.252,2,1,0,0,0
6696.221,2,1,0,0,0
6736.28,2,1,0,0,0
6776.274,2,1,0,0,0
6816.296,2,1,0,0,0
6856.29,2,1,0,0,0
6896.253,2,1,0,0,0
6936.26,2,1,0,0,0
6976.241,2,1,0,0,0
7016.307,2,1,0,0,0
7056.295,2,1,0,0,0
7096.273,2,1,0,0,0
7136.223,2,1,0,0,0
7176.257,2,1,0,0,0
7216.259,2,1,0,0,0
7256.272,2,1,0,0,0
7296.292,2,1,0,0,0
7336.27,2,1,0,0,0
7376.219,2,1,0,0,0
7416.26,2,1,0,0,0
7456.218,2,1,0,0,0
7496.274,2,1,0,0,0
7536.317,2,1,0,0,0
7576.282,2,1,0,0,0
7616.226,2,1,0,0,0
7656.253,2,1,0,0,0
7696.28,2,1,0,0,0
7736.272,2,1,0,0,0
7776.294,2,1,0,0,0
7816.235,2,1,0,0,0
7856.243,2,1,0,0,0
7896.248,2,1,0,0,0
7936.279,2,1,0,0,0
7976.291,2,1,0,0,0
8016.279,2,1,0,0,0
8056.211,2,1,0,0,0
8096.246,2,1,0,0,0
8136.251,2,1,0,0,0
8176.276,2,1,0,0,0
8216.254,2,1,0,0,0
8256.271,2,1,0,0,0
8296.22,2,1,0,0,0
8336.275,2,1,0,0,0
8376.278,2,1,0,0,0
8416.268,2,1,0,0,0
8456.287,2,1,0,0,0
8496.257,2,1,0,0,0
8536.231,2,1,0,0,0
8576.256,2,1,0,0,0
8616.274,2,1,0,0,0
8656.266,2,1,0,0,0
8696.303,2,1,0,0,0
8736.227,2,1,0,0,0
8776.247,2,1,0,0,0
8816.278,2,1,0,0,0
8856.27,2,1,0,0,0
8896.315,2,1,0,0,0
8936.295,2,1,0,0,0
8976.221,2,1,0,0,0
9016.254,2,1,0,0,0
9056.239,2,1,0,0,0
9096.292,2,1,0,0,0
9136.285,2,1,0,0,0
9176.267,2,1,0,0,0
9216.216,2,1,0,0,0
9256.244,2,1,0,0,0
9296.28,2,1,0,0,0
9336.283,2,1,0,0,0
9376.302,2,1,0,0,0
9416.262,2,1,0,0,0
9456.259,2,1,0,0,0
9496.257,2,1,0,0,0
9536.28,2,1,0,0,0
9576.299,2,1,0,0,0
9616.283,2,1,0,0,0
9656.228,2,1,0,0,0
9696.252,2,1,0,0,0
9736.251,2,1,0,0,0
9776.275,2,1,0,0,0
9816.314,2,1,0,0,0
9856.269,2,1,0,0,0
9896.221,2,1,0,0,0
9936.251,2,1,0,0,0
9976.24,2,1,0,0,0
10016.298,2,1,0,0,0
10056.279,2,1,0,0,0
10096.245,2,1,0,0,0
10136.226,2,1,0,0,0
10176.244,2,1,0,0,0
10216.274,2,1,0,0,0
10256.274,2,1,0,0,0
10296.314,2,1,0,0,0
10336.254,2,1,0,0,0
10376.242,2,1,0,0,0
10416.247,2,1,0,0,0
10456.281,2,1,0,0,0
10496.27,2,1,0,0,0
10536.278,2,1,0,0,0
10576.221,2,1,0,0,0
10616.251,2,1,0,0,0
10656.289,2,1,0,0,0
10696.283,2,1,0,0,0
10736.271,2,1,0,0,0
10776.271,2,1,0,0,0
10816.225,2,1,0,0,0
10856.265,2,1,0,0,0
10896.224,2,1,0,0,0
10936.302,2,1,0,0,0
10976.282,2,1,0,0,0
11016.266,2,1,0,0,0
11056.217,2,1,0,0,0
11096.249,2,1,0,0,0
11136.28,2,1,0,0,0
11176.296,2,1,0,0,0
11216.289,2,1,0,0,0
11256.242,2,1,0,0,0
11296.256,2,1,0,0,0
11336.244,2,1,0,0,0
11376.325,2,1,0,0,0
11416.295,2,1,0,0,0
11456.281,2,1,0,0,0
11496.232,2,1,0,0,0
11536.254,2,1,0,0,0
11576.25,2,1,0,0,0
11616.277,2,1,0,0,0
11656.309,2,1,0,0,0
11696.256,2,1,0,0,0
11736.226,2,1,0,0,0
11776.254,2,1,0,0,0
11816.286,2,1,0,0,0
11856.297,2,1,0,0,0
11896.306,2,1,0,0,0
11936.283,2,1,0,0,0
11976.233,2,1,0,0,0
12016.252,2,1,0,0,0
12056.283,2,1,0,0,0
12096.3,2,1,0,0,0
12136.29,2,1,0,0,0
12176.234,2,1,0,0,0
12216.26,2,1,0,0,0
12256.245,2,1,0,0,0
12296.275,2,1,0,0,0
12336.296,2,1,0,0,0
12376.28,2,1,0,0,0
12416.23,2,1,0,0,0
12456.247,2,1,0,0,0
12496.252,2,1,0,0,0
12536.286,2,1,0,0,0
12576.292,2,1,0,0,0
12616.256,2,1,0,0,0
12656.223,2,1,0,0,0
12696.258,2,1,0,0,0
12736.263,2,1,0,0,0
12776.284,2,1,0,0,0
12816.282,2,1,0,0,0
12856.258,2,1,0,0,0
12896.213,2,1,0,0,0
12936.251,2,1,0,0,0
12976.281,2,1,0,0,0
13016.271,2,1,0,0,0
13056.282,2,1,0,0,0
13096.232,2,1,0,0,0
13136.25,2,1,0,0,0
13176.25,2,1,0,0,0
13216.288,2,1,0,0,0
13256.273,2,1,0,0,0
13296.282,2,1,0,0,0
13336.224,2,1,0,0,0
13376.242,2,1,0,0,0
13416.237,2,1,0,0,0
13456.291,2,1,0,0,0
13496.285,2,1,0,0,0
13536.263,2,1,0,0,0
13576.214,2,1,0,0,0
13616.252,2,1,0,0,0
13656.284,2,1,0,0,0
13696.252,2,1,0,0,0
13736.341,2,1,0,0,0
13776.263,2,1,0,0,0
13816.246,2,1,0,0,0
13856.254,2,1,0,0,0
13896.28,2,1,0,0,0
13936.3,2,1,0,0,0
13976.278,2,1,0,0,0
14016.254,2,1,0,0,0
14056.244,2,1,0,0,0
14096.252,2,1,0,0,0
14136.293,2,1,0,0,0
14176.308,2,1,0,0,0
14216.271,2,1,0,0,0
14256.22,2,1,0,0,0
14296.25,2,1,0,0,0
14336.234,2,1,0,0,0
14376.284,2,1,0,0,0
14416.273,2,1,0,0,0
14456.277,2,1,0,0,0
14496.224,2,1,0,0,0
14536.25,2,1,0,0,0
14576.289,2,1,0,0,0
14616.302,2,1,0,0,0
14656.303,2,1,0,0,0
14696.248,2,1,0,0,0
14736.247,2,1,0,0,0
14776.247,2,1,0,0,0
14816.295,2,1,0,0,0
14856.289,2,1,0,0,0
14896.305,2,1,0,0,0
14936.214,2,1,0,0,0
14976.248,2,1,0,0,0
15016.243,2,1,0,0,0
15056.277,2,1,0,0,0
15096.266,2,1,0,0,0
15136.271,2,1,0,0,0
15176.236,2,1,0,0,0
15216.241,2,1,0,0,0
15256.22,2,1,0,0,0
15296.28,2,1,0,0,0
15336.277,2,1,0,0,0
15376.259,2,1,0,0,0
15416.247,2,1,0,0,0
15456.259,2,1,0,0,0
15496.275,2,1,0,0,0
15536.292,2,1,0,0,0
15576.29,2,1,0,0,0
15616.234,2,1,0,0,0
15656.245,2,1,0,0,0
15696.267,2,1,0,0,0
15736.275,2,1,0,0,0
15776.296,2,1,0,0,0
15816.304,2,1,0,0,0
15856.232,2,1,0,0,0
15896.253,2,1,0,0,0
15936.253,2,1,0,0,0
15976.275,2,1,0,0,0
16016.298,2,1,0,0,0
16056.288,2,1,0,0,0
16096.216,2,1,0,0,0
16136.253,2,1,0,0,0
16176.293,2,1,0,0,0
16216.265,2,1,0,0,0
16256.299,2,1,0,0,0
16296.279,2,1,0,0,0
16336.213,2,1,0,0,0
16376.253,2,1,0,0,0
16416.282,2,1,0,0,0
16456.293,2,1,0,0,0
16496.295,2,1,0,0,0
16536.271,2,1,0,0,0
16576.252,2,1,0,0,0
16616.24,2,1,0,0,0
16656.279,2,1,0,0,0
16696.3,2,1,0,0,0
16736.29,2,1,0,0,0
16776.217,2,1,0,0,0
16816.252,2,1,0,0,0
16856.239,2,1,0,0,0
16896.281,2,1,0,0,0
16936.301,2,1,0,0,0
16976.254,2,1,0,0,0
17016.225,2,1,0,0,0
17056.269,2,1,0,0,0
17096.278,2,1,0,0,0
17136.269,2,1,0,0,0
17176.314,2,1,0,0,0
17216.288,2,1,0,0,0
17256.228,2,1,0,0,0
17296.255,2,1,0,0,0
17336.268,2,1,0,0,0
17376.292,2,1,0,0,0
17416.295,2,1,0,0,0
17456.245,2,1,0,0,0
17496.247,2,1,0,0,0
17536.249,2,1,0,0,0
17576.299,2,1,0,0,0
17616.274,2,1,0,0,0
17656.285,2,1,0,0,0
17696.217,2,1,0,0,0
17736.251,2,1,0,0,0
17776.291,2,1,0,0,0
17816.284,2,1,0,0,0
17856.26,2,1,0,0,0
17896.271,2,1,0,0,0
17936.226,2,1,0,0,0
17976.252,2,1,0,0,0
18016.283,2,1,0,0,0
18056.296,2,1,0,0,0
18096.295,2,1,0,0,0
18136.249,2,1,0,0,0
18176.238,2,1,0,0,0
18216.253,2,1,0,0,0
18256.275,2,1,0,0,0
18296.311,2,1,0,0,0
18336.297,2,1,0,0,0
18376.223,2,1,0,0,0
18416.248,2,1,0,0,0
18456.249,2,1,0,0,0
18496.28,2,1,0,0,0
18536.299,2,1,0,0,0
18576.304,2,1,0,0,0
18616.213,2,1,0,0,0
18656.254,2,1,0,0,0
18696.308,2,1,0,0,0
18736.272,2,1,0,0,0
18776.294,2,1,0,0,0
18816.279,2,1,0,0,0
18856.218,2,1,0,0,0
18896.261,2,1,0,0,0
18936.282,2,1,0,0,0
18976.293,2,1,0,0,0
19016.302,2,1,0,0,0
19056.259,2,1,0,0,0
19096.242,2,1,0,0,0
19136.244,2,1,0,0,0
19176.28,2,1,0,0,0
19216.287,2,1,0,0,0
19256.27,2,1,0,0,0
19296.243,2,1,0,0,0
19336.251,2,1,0,0,0
19376.251,2,1,0,0,0
19416.277,2,1,0,0,0
19456.278,2,1,0,0,0
19496.263,2,1,0,0,0
19536.223,2,1,0,0,0
19576.246,2,1,0,0,0
19616.286,2,1,0,0,0
19656.266,2,1,0,0,0
19696.327,2,1,0,0,0
19736.25,2,1,0,0,0
19776.234,2,1,0,0,0
19816.25,2,1,0,0,0
19856.277,2,1,0,0,0
19896.272,2,1,0,0,0
19936.289,2,1,0,0,0
19976.214,2,1,0,0,0
20016.25,2,1,0,0,0
20056.245,2,1,0,0,0
20096.277,2,1,0,0,0
20136.272,2,1,0,0,0
20176.285,2,1,0,0,0
20216.218,2,1,0,0,0
20256.281,2,1,0,0,0
20296.233,2,1,0,0,0
20336.279,2,1,0,0,0
20376.263,2,1,0,0,0
20416.277,2,1,0,0,0
20456.216,2,1,0,0,0
20496.247,2,1,0,0,0
20536.301,2,1,0,0,0
20576.277,2,1,0,0,0
20616.308,2,1,0,0,0
20656.248,2,1,0,0,0
20696.251,2,1,0,0,0
20736.259,2,1,0,0,0
20776.27,2,1,0,0,0
20816.293,2,1,0,0,0
20856.282,2,1,0,0,0
20896.226,2,1,0,0,0
20936.252,2,1,0,0,0
20976.239,2,1,0,0,0
21016.271,2,1,0,0,0
21056.297,2,1,0,0,0
21096.284,2,1,0,0,0
21136.219,2,1,0,0,0
21176.26,2,1,0,0,0
21216.234,2,1,0,0,0
21256.305,2,1,0,0,0
21296.285,2,1,0,0,0
21336.25,2,1,0,0,0
21376.218,2,1,0,0,0
21416.249,2,1,0,0,0
21456.291,2,1,0,0,0
21496.259,2,1,0,0,0
21536.311,2,1,0,0,0
21576.251,2,1,0,0,0
21616.244,2,1,0,0,0
21656.248,2,1,0,0,0
21696.274,2,1,0,0,0
21736.256,2,1,0,0,0
21776.278,2,1,0,0,0
21816.225,2,1,0,0,0
21856.259,2,1,0,0,0
21896.249,2,1,0,0,0
21936.296,2,1,0,0,0
21976.295,2,1,0,0,0
22016.279,2,1,0,0,0
22056.214,2,1,0,0,0
22096.249,2,1,0,0,0
22136.223,2,1,0,0,0
22176.282,2,1,0,0,0
22216.27,2,1,0,0,0
22256.242,2,1,0,0,0
22296.221,2,1,0,0,0
22336.252,2,1,0,0,0
22376.285,2,1,0,0,0
22416.273,2,1,0,0,0
22456.315,2,1,0,0,0
22496.242,2,1,0,0,0
22536.248,2,1,0,0,0
22576.241,2,1,0,0,0
22616.279,2,1,0,0,0
22656.27,2,1,0,0,0
22696.281,2,1,0,0,0
22736.24,2,1,0,0,0
22776.246,2,1,0,0,0
22816.267,2,1,0,0,0
22856.279,2,1,0,0,0
22896.264,2,1,0,0,0
22936.269,2,1,0,0,0
22976.221,2,1,0,0,0
23016.254,2,1,0,0,0
23056.263,2,1,0,0,0
23096.292,2,1,0,0,0
23136.284,2,1,0,0,0
23176.294,2,1,0,0,0
23216.216,2,1,0,0,0
23256.245,2,1,0,0,0
23296.284,2,1,0,0,0
23336.265,2,1,0,0,0
23376.284,2,1,0,0,0
23416.232,2,1,0,0,0
23456.275,2,1,0,0,0
23496.243,2,1,0,0,0
23536.302,2,1,0,0,0
23576.297,2,1,0,0,0
23616.289,2,1,0,0,0
23656.241,2,1,0,0,0
23696.249,2,1,0,0,0
23736.241,2,1,0,0,0
23776.276,2,1,0,0,0
23816.31,2,1,0,0,0
23856.249,2,1,0,0,0
23896.212,2,1,0,0,0
23936.245,2,1,0,0,0
23976.281,2,1,0,0,0
24016.273,2,1,0,0,0
24056.312,2,1,0,0,0
24096.279,2,1,0,0,0
24136.228,2,1,0,0,0
24176.249,2,1,0,0,0
24216.283,2,1,0,0,0
24256.289,2,1,0,0,0
24296.3,2,1,0,0,0
24336.247,2,1,0,0,0
24376.251,2,1,0,0,0
24416.246,2,1,0,0,0
24456.292,2,1,0,0,0
24496.294,2,1,0,0,0
24536.283,2,1,0,0,0
24576.224,2,1,0,0,0
24616.249,2,1,0,0,0
24656.241,2,1,0,0,0
24696.288,2,1,0,0,0
24736.262,2,1,0,0,0
24776.25,2,1,0,0,0
24816.221,2,1,0,0,0
24856.249,2,1,0,0,0
24896.279,2,1,0,0,0
24936.286,2,1,0,0,0
24976.272,2,1,0,0,0
25016.254,2,1,0,0,0
25056.266,2,1,0,0,0
25096.246,2,1,0,0,0
25136.292,2,1,0,0,0
25176.294,2,1,0,0,0
25216.273,2,1,0,0,0
25256.214,2,1,0,0,0
25296.252,2,1,0,0,0
25336.246,2,1,0,0,0
25376.28,2,1,0,0,0
25416.305,2,1,0,0,0
25456.27,2,1,0,0,0
25496.241,2,1,0,0,0
25536.254,2,1,0,0,0
25576.225,2,1,0,0,0
25616.281,2,1,0,0,0
25656.283,2,1,0,0,0
25696.297,2,1,0,0,0
25736.227,2,1,0,0,0
25776.245,2,1,0,0,0
25816.294,2,1,0,0,0
25856.307,2,1,0,0,0
25896.297,2,1,0,0,0
25936.266,2,1,0,0,0
25976.245,2,1,0,0,0
26016.249,2,1,0,0,0
26056.292,2,1,0,0,0
26096.296,2,1,0,0,0
26136.292,2,1,0,0,0
26176.247,2,1,0,0,0
26216.245,2,1,0,0,0
26256.295,2,1,0,0,0
26296.285,2,1,0,0,0
26336.294,2,1,0,0,0
26376.267,2,1,0,0,0
26416.217,2,1,0,0,0
26456.281,2,1,0,0,0
26496.215,2,1,0,0,0
26536.295,2,1,0,0,0
26576.308,2,1,0,0,0
26616.263,2,1,0,0,0
26656.22,2,1,0,0,0
26696.253,2,1,0,0,0
26736.272,2,1,0,0,0
26776.286,2,1,0,0,0
26816.292,2,1,0,0,0
26856.227,2,1,0,0,0
26896.244,2,1,0,0,0
26936.257,2,1,0,0,0
26976.271,2,1,0,0,0
27016.293,2,1,0,0,0
27056.298,2,1,0,0,0
27096.214,2,1,0,0,0
27136.259,2,1,0,0,0
27176.242,2,1,0,0,0
27216.286,2,1,0,0,0
27256.259,2,1,0,0,0
27296.27,2,1,0,0,0
27336.218,2,1,0,0,0
27376.253,2,1,0,0,0
27416.283,2,1,0,0,0
27456.276,2,1,0,0,0
27496.297,2,1,0,0,0
27536.281,2,1,0,0,0
27576.216,2,1,0,0,0
27616.244,2,1,0,0,0
27656.284,2,1,0,0,0
27696.292,2,1,0,0,0
27736.28,2,1,0,0,0
27776.248,2,1,0,0,0
27816.249,2,1,0,0,0
27856.247,2,1,0,0,0
27896.279,2,1,0,0,0
27936.313,2,1,0,0,0
27976.291,2,1,0,0,0
28016.221,2,1,0,0,0
28056.248,2,1,0,0,0
28096.238,2,1,0,0,0
28136.279,2,1,0,0,0
28176.284,2,1,0,0,0
28216.286,2,1,0,0,0
28256.215,2,1,0,0,0
28296.251,2,1,0,0,0
28336.275,2,1,0,0,0
28376.259,2,1,0,0,0
28416.324,2,1,0,0,0
28456.268,2,1,0,0,0
28496.241,2,1,0,0,0
28536.253,2,1,0,0,0
28576.285,2,1,0,0,0
28616.292,2,1,0,0,0
28656.295,2,1,0,0,0
28696.216,2,1,0,0,0
28736.246,2,1,0,0,0
28776.242,2,1,0,0,0
28816.285,2,1,0,0,0
28856.302,2,1,0,0,0
28896.283,2,1,0,0,0
28936.235,2,1,0,0,0
28976.247,2,1,0,0,0
29016.227,2,1,0,0,0
29056.284,2,1,0,0,0
29096.274,2,1,0,0,0
29136.26,2,1,0,0,0
29176.222,2,1,0,0,0
29216.242,2,1,0,0,0
29256.28,2,1,0,0,0
29296.256,2,1,0,0,0
29336.294,2,1,0,0,0
29376.25,2,1,0,0,0
29416.245,2,1,0,0,0
29456.245,2,1,0,0,0
29496.272,2,1,0,0,0
29536.28,2,1,0,0,0
29576.279,2,1,0,0,0
29616.214,2,1,0,0,0
29656.251,2,1,0,0,0
29696.24,2,1,0,0,0
29736.279,2,1,0,0,0
29776.285,2,1,0,0,0
29816.268,2,1,0,0,0
29856.223,2,1,0,0,0
29896.244,2,1,0,0,0
29936.217,2,1,0,0,0
29976.289,2,1,0,0,0
30016.234,2,1,0,0,0
30056.278,2,1,0,0,0
30096.205,2,1,0,0,0
30136.241,2,1,0,0,0
30176.267,2,1,0,0,0
30216.237,2,1,0,0,0
30256.253,2,1,0,0,0
30296.226,2,1,0,0,0
30336.203,2,1,0,0,0
30376.239,2,1,0,0,0
30416.278,2,1,0,0,0
30456.287,2,1,0,0,0
30496.283,2,1,0,0,0
30536.208,2,1,0,0,0
30576.241,2,1,0,0,0
30616.229,2,1,0,0,0
30656.274,2,1,0,0,0
30696.288,2,1,0,0,0
30736.26,2,1,0,0,0
30776.223,2,1,0,0,0
30816.241,2,1,0,0,0
30856.255,2,1,0,0,0
30896.251,2,1,0,0,0
30936.316,2,1,0,0,0
30976.252,2,1,0,0,0
31016.229,2,1,0,0,0
31056.239,2,1,0,0,0
31096.259,2,1,0,0,0
31136.285,2,1,0,0,0
31176.288,2,1,0,0,0
31216.213,2,1,0,0,0
31256.231,2,1,0,0,0
31296.244,2,1,0,0,0
31336.268,2,1,0,0,0
31376.28,2,1,0,0,0
31416.271,2,1,0,0,0
31456.208,2,1,0,0,0
31496.261,2,1,0,0,0
31536.226,2,1,0,0,0
31576.27,2,1,0,0,0
31616.275,2,1,0,0,0
31656.248,2,1,0,0,0
31696.209,2,1,0,0,0
31736.232,2,1,0,0,0
31776.28,2,1,0,0,0
31816.247,2,1,0,0,0
31856.326,2,1,0,0,0
31896.242,2,1,0,0,0
31936.208,2,1,0,0,0
31976.237,2,1,0,0,0
32016.271,2,1,0,0,0
32056.256,2,1,0,0,0
32096.269,2,1,0,0,0
32136.202,2,1,0,0,0
32176.23,2,1,0,0,0
32216.25,2,1,0,0,0
32256.276,2,1,0,0,0
32296.271,2,1,0,0,0
32336.273,2,1,0,0,0
32376.207,2,1,0,0,0
32416.234,2,1,0,0,0
32456.223,2,1,0,0,0
32496.26,2,1,0,0,0
32536.247,2,1,0,0,0
32576.246,2,1,0,0,0
32616.212,2,1,0,0,0
32656.239,2,1,0,0,0
32696.28,2,1,0,0,0
32736.246,2,1,0,0,0
32776.279,2,1,0,0,0
32816.242,2,1,0,0,0
32856.234,2,1,0,0,0
32896.256,2,1,0,0,0
32936.274,2,1,0,0,0
32976.309,2,1,0,0,0
33016.28,2,1,0,0,0
33056.209,2,1,0,0,0
33096.229,2,1,0,0,0
33136.23,2,1,0,0,0
33176.281,2,1,0,0,0
33216.285,2,1,0,0,0
33256.248,2,1,0,0,0
33296.216,2,1,0,0,0
33336.27,2,1,0,0,0
33376.217,2,1,0,0,0
33416.27,2,1,0,0,0
33456.26,2,1,0,0,0
33496.25,2,1,0,0,0
33536.211,2,1,0,0,0
33576.237,2,1,0,0,0
33616.268,2,1,0,0,0
33656.284,2,1,0,0,0
33696.287,2,1,0,0,0
33736.238,2,1,0,0,0
33776.215,2,1,0,0,0
33816.24,2,1,0,0,0
33856.291,2,1,0,0,0
33896.29,2,1,0,0,0
33936.267,2,1,0,0,0
33976.222,2,1,0,0,0
34016.235,2,1,0,0,0
34056.23,2,1,0,0,0
34096.27,2,1,0,0,0
34136.284,2,1,0,0,0
34176.286,2,1,0,0,0
34216.224,2,1,0,0,0
34256.234,2,1,0,0,0
34296.255,2,1,0,0,0
34336.267,2,1,0,0,0
34376.304,2,1,0,0,0
34416.246,2,1,0,0,0
34456.247,2,1,0,0,0
34496.238,2,1,0,0,0
34536.27,2,1,0,0,0
34576.264,2,1,0,0,0
34616.274,2,1,0,0,0
34656.211,2,1,0,0,0
34696.227,2,1,0,0,0
34736.349,2,1,0,0,0
34776.264,2,1,0,0,0
34816.278,2,1,0,0,0
34856.268,2,1,0,0,0
34896.214,2,1,0,0,0
34936.243,2,1,0,0,0
34976.225,2,1,0,0,0
35016.273,2,1,0,0,0
35056.278,2,1,0,0,0
35096.273,2,1,0,0,0
35136.206,2,1,0,0,0
35176.25,2,1,0,0,0
35216.246,2,1,0,0,0
35256.251,2,1,0,0,0
35296.294,2,1,0,0,0
35336.267,2,1,0,0,0
35376.202,2,1,0,0,0
35416.24,2,1,0,0,0
35456.259,2,1,0,0,0
35496.285,2,1,0,0,0
35536.278,2,1,0,0,0
35576.261,2,1,0,0,0
35616.244,2,1,0,0,0
35656.256,2,1,0,0,0
35696.301,2,1,0,0,0
35736.293,2,1,0,0,0
35776.269,2,1,0,0,0
35816.216,2,1,0,0,0
35856.255,2,1,0,0,0
35896.221,2,1,0,0,0
35936.298,2,1,0,0,0
35976.271,2,1,0,0,0
36016.254,2,1,0,0,0
36056.216,2,1,0,0,0
36096.235,2,1,0,0,0
36136.257,2,1,0,0,0
36176.244,2,1,0,0,0
36216.283,2,1,0,0,0
36256.235,2,1,0,0,0
36296.242,2,1,0,0,0
36336.242,2,1,0,0,0
36376.269,2,1,0,0,0
36416.288,2,1,0,0,0
36456.271,2,1,0,0,0
36496.203,2,1,0,0,0
36536.245,2,1,0,0,0
36576.24,2,1,0,0,0
36616.273,2,1,0,0,0
36656.301,2,1,0,0,0
36696.273,2,1,0,0,0
36736.211,2,1,0,0,0
36776.236,2,1,0,0,0
36816.224,2,1,0,0,0
36856.263,2,1,0,0,0
36896.27,2,1,0,0,0
36936.258,2,1,0,0,0
36976.214,2,1,0,0,0
37016.244,2,1,0,0,0
37056.294,2,1,0,0,0
37096.254,2,1,0,0,0
37136.266,2,1,0,0,0
37176.254,2,1,0,0,0
37216.218,2,1,0,0,0
37256.255,2,1,0,0,0
37296.276,2,1,0,0,0
37336.317,2,1,0,0,0
37376.271,2,1,0,0,0
37416.224,2,1,0,0,0
37456.234,2,1,0,0,0
37496.238,2,1,0,0,0
37536.267,2,1,0,0,0
37576.279,2,1,0,0,0
37616.291,2,1,0,0,0
37656.224,2,1,0,0,0
37696.247,2,1,0,0,0
37736.207,2,1,0,0,0
37776.258,2,1,0,0,0
37816.317,2,1,0,0,0
37856.257,2,1,0,0,0
37896.207,2,1,0,0,0
37936.241,2,1,0,0,0
37976.295,2,1,0,0,0
38016.288,2,1,0,0,0
38056.326,2,1,0,0,0
38096.224,2,1,0,0,0
38136.238,2,1,0,0,0
38176.24,2,1,0,0,0
38216.261,2,1,0,0,0
38256.281,2,1,0,0,0
38296.295,2,1,0,0,0
38336.208,2,1,0,0,0
38376.239,2,1,0,0,0
38416.234,2,1,0,0,0
38456.272,2,1,0,0,0
38496.279,2,1,0,0,0
38536.266,2,1,0,0,0
38576.213,2,1,0,0,0
38616.244,2,1,0,0,0
38656.242,2,1,0,0,0
38696.261,2,1,0,0,0
38736.291,2,1,0,0,0
38776.26,2,1,0,0,0
38816.211,2,1,0,0,0
38856.238,2,1,0,0,0
38896.265,2,1,0,0,0
38936.293,2,1,0,0,0
38976.272,2,1,0,0,0
39016.264,2,1,0,0,0
39056.244,2,1,0,0,0
39096.239,2,1,0,0,0
39136.272,2,1,0,0,0
39176.263,2,1,0,0,0
39216.264,2,1,0,0,0
39256.211,2,1,0,0,0
39296.264,2,1,0,0,0
39336.223,2,1,0,0,0
39376.265,2,1,0,0,0
39416.249,2,1,0,0,0
39456.243,2,1,0,0,0
39496.209,2,1,0,0,0
39536.243,2,1,0,0,0
39576.276,2,1,0,0,0
39616.245,2,1,0,0,0
39656.292,2,1,0,0,0
39696.245,2,1,0,0,0
39736.204,2,1,0,0,0
39776.231,2,1,0,0,0
39816.263,2,1,0,0,0
39856.284,2,1,0,0,0
39896.288,2,1,0,0,0
39936.202,2,1,0,0,0
39976.235,2,1,0,0,0
40016.235,2,1,0,0,0
40056.271,2,1,0,0,0
40096.283,2,1,0,0,0
40136.283,2,1,0,0,0
40176.212,2,1,0,0,0
40216.232,2,1,0,0,0
40256.233,2,1,0,0,0
40296.265,2,1,0,0,0
40336.276,2,1,0,0,0
40376.237,2,1,0,0,0
40416.213,2,1,0,0,0
40456.233,2,1,0,0,0
40496.244,2,1,0,0,0
40536.29,2,1,0,0,0
40576.285,2,1,0,0,0
40616.239,2,1,0,0,0
40656.24,2,1,0,0,0
40696.232,2,1,0,0,0
40736.276,2,1,0,0,0
40776.282,2,1,0,0,0
40816.273,2,1,0,0,0
40856.228,2,1,0,0,0
40896.233,2,1,0,0,0
40936.247,2,1,0,0,0
40976.262,2,1,0,0,0
41016.279,2,1,0,0,0
41056.264,2,1,0,0,0
41096.206,2,1,0,0,0
41136.249,2,1,0,0,0
41176.21,2,1,0,0,0
41216.256,2,1,0,0,0
41256.282,2,1,0,0,0
41296.239,2,1,0,0,0
41336.202,2,1,0,0,0
41376.237,2,1,0,0,0
41416.27,2,1,0,0,0
41456.284,2,1,0,0,0
41496.293,2,1,0,0,0
41536.223,2,1,0,0,0
41576.202,2,1,0,0,0
41616.24,2,1,0,0,0
41656.285,2,1,0,0,0
41696.257,2,1,0,0,0
41736.265,2,1,0,0,0
41776.211,2,1,0,0,0
41816.237,2,1,0,0,0
41856.223,2,1,0,0,0
41896.264,2,1,0,0,0
41936.253,2,1,0,0,0
41976.249,2,1,0,0,0
42016.209,2,1,0,0,0
42056.254,2,1,0,0,0
42096.208,2,1,0,0,0
42136.264,2,1,0,0,0
42176.285,2,1,0,0,0
42216.24,2,1,0,0,0
42256.232,2,1,0,0,0
42296.244,2,1,0,0,0
42336.271,2,1,0,0,0
42376.28,2,1,0,0,0
42416.311,2,1,0,0,0
42456.212,2,1,0,0,0
42496.231,2,1,0,0,0
42536.234,2,1,0,0,0
42576.266,2,1,0,0,0
42616.284,2,1,0,0,0
42656.265,2,1,0,0,0
42696.219,2,1,0,0,0
42736.24,2,1,0,0,0
42776.241,2,1,0,0,0
42816.274,2,1,0,0,0
42856.267,2,1,0,0,0
42896.236,2,1,0,0,0
42936.214,2,1,0,0,0
42976.233,2,1,0,0,0
43016.24,2,1,0,0,0
43056.276,2,1,0,0,0
43096.289,2,1,0,0,0
43136.259,2,1,0,0,0
43176.206,2,1,0,0,0
43216.24,2,1,0,0,0
43256.26,2,1,0,0,0
43296.285,2,1,0,0,0
43336.264,2,1,0,0,0
43376.209,2,1,0,0,0
43416.238,2,1,0,0,0
43456.233,2,1,0,0,0
43496.314,2,1,0,0,0
43536.288,2,1,0,0,0
43576.263,2,1,0,0,0
43616.204,2,1,0,0,0
43656.236,2,1,0,0,0
43696.215,2,1,0,0,0
43736.278,2,1,0,0,0
43776.259,2,1,0,0,0
43816.238,2,1,0,0,0
43856.209,2,1,0,0,0
43896.237,2,1,0,0,0
43936.289,2,1,0,0,0
43976.257,2,1,0,0,0
44016.303,2,1,0,0,0
44056.236,2,1,0,0,0
44096.201,2,1,0,0,0
44136.24,2,1,0,0,0
44176.269,2,1,0,0,0
44216.238,2,1,0,0,0
44256.266,2,1,0,0,0
44296.205,2,1,0,0,0
44336.239,2,1,0,0,0
44376.241,2,1,0,0,0
44416.271,2,1,0,0,0
44456.271,2,1,0,0,0
44496.257,2,1,0,0,0
44536.212,2,1,0,0,0
44576.238,2,1,0,0,0
44616.217,2,1,0,0,0
44656.263,2,1,0,0,0
44696.272,2,1,0,0,0
44736.253,2,1,0,0,0
44776.204,2,1,0,0,0
44816.243,2,1,0,0,0
44856.242,2,1,0,0,0
44896.302,2,1,0,0,0
44936.287,2,1,0,0,0
44976.258,2,1,0,0,0
45016.234,2,1,0,0,0
45056.232,2,1,0,0,0
45096.267,2,1,0,0,0
45136.282,2,1,0,0,0
45176.267,2,1,0,0,0
45216.226,2,1,0,0,0
45256.235,2,1,0,0,0
45296.241,2,1,0,0,0
45336.27,2,1,0,0,0
45376.271,2,1,0,0,0
45416.254,2,1,0,0,0
45456.212,2,1,0,0,0
45496.234,2,1,0,0,0
45536.297,2,1,0,0,0
45576.274,2,1,0,0,0
45616.299,2,1,0,0,0
45656.247,2,1,0,0,0
45696.21,2,1,0,0,0
45736.237,2,1,0,0,0
45776.271,2,1,0,0,0
45816.302,2,1,0,0,0
45856.276,2,1,0,0,0
45896.226,2,1,0,0,0
45936.236,2,1,0,0,0
45976.238,2,1,0,0,0
46016.266,2,1,0,0,0
46056.294,2,1,0,0,0
46096.281,2,1,0,0,0
46136.206,2,1,0,0,0
46176.245,2,1,0,0,0
46216.234,2,1,0,0,0
46256.26,2,1,0,0,0
46296.282,2,1,0,0,0
46336.25,2,1,0,0,0
46376.209,2,1,0,0,0
46416.23,2,1,0,0,0
46456.238,2,1,0,0,0
46496.255,2,1,0,0,0
46536.269,2,1,0,0,0
46576.289,2,1,0,0,0
46616.209,2,1,0,0,0
46656.254,2,1,0,0,0
46696.269,2,1,0,0,0
46736.258,2,1,0,0,0
46776.273,2,1,0,0,0
46816.256,2,1,0,0,0
46856.249,2,1,0,0,0
46896.24,2,1,0,0,0
46936.292,2,1,0,0,0
46976.28,2,1,0,0,0
47016.283,2,1,0,0,0
47056.223,2,1,0,0,0
47096.237,2,1,0,0,0
47136.222,2,1,0,0,0
47176.282,2,1,0,0,0
47216.265,2,1,0,0,0
47256.268,2,1,0,0,0
47296.208,2,1,0,0,0
47336.236,2,1,0,0,0
47376.274,2,1,0,0,0
47416.249,2,1,0,0,0
47456.299,2,1,0,0,0
47496.276,2,1,0,0,0
47536.222,2,1,0,0,0
47576.235,2,1,0,0,0
47616.262,2,1,0,0,0
47656.281,2,1,0,0,0
47696.267,2,1,0,0,0
47736.211,2,1,0,0,0
47776.229,2,1,0,0,0
47816.244,2,1,0,0,0
47856.277,2,1,0,0,0
47896.282,2,1,0,0,0
47936.261,2,1,0,0,0
47976.201,2,1,0,0,0
48016.239,2,1,0,0,0
48056.223,2,1,0,0,0
48096.267,2,1,0,0,0
48136.32,2,1,0,0,0
48176.25,2,1,0,0,0
48216.204,2,1,0,0,0
48256.23,2,1,0,0,0
48296.275,2,1,0,0,0
48336.282,2,1,0,0,0
48376.273,2,1,0,0,0
48416.242,2,1,0,0,0
48456.237,2,1,0,0,0
48496.238,2,1,0,0,0
48536.266,2,1,0,0,0
48576.303,2,1,0,0,0
48616.263,2,1,0,0,0
48656.205,2,1,0,0,0
48696.235,2,1,0,0,0
48736.242,2,1,0,0,0
48776.279,2,1,0,0,0
48816.255,2,1,0,0,0
48856.265,2,1,0,0,0
48896.211,2,1,0,0,0
48936.254,2,1,0,0,0
48976.205,2,1,0,0,0
49016.266,2,1,0,0,0
49056.275,2,1,0,0,0
49096.245,2,1,0,0,0
49136.274,2,1,0,0,0
49176.249,2,1,0,0,0
49216.256,2,1,0,0,0
49256.283,2,1,0,0,0
49296.291,2,1,0,0,0
49336.217,2,1,0,0,0
49376.227,2,1,0,0,0
49416.246,2,1,0,0,0
49456.286,2,1,0,0,0
49496.28,2,1,0,0,0
49536.318,2,1,0,0,0
49576.203,2,1,0,0,0
49616.238,2,1,0,0,0
49656.225,2,1,0,0,0
49696.269,2,1,0,0,0
49736.288,2,1,0,0,0
49776.24,2,1,0,0,0
49816.209,2,1,0,0,0
49856.236,2,1,0,0,0
49896.209,2,1,0,0,0
49936.25,2,1,0,0,0
49976.314,2,1,0,0,0
50016.267,2,1,0,0,0
50056.212,2,1,0,0,0
50096.24,2,1,0,0,0
50136.276,2,1,0,0,0
50176.281,2,1,0,0,0
50216.268,2,1,0,0,0
50256.209,2,1,0,0,0
50296.235,2,1,0,0,0
50336.245,2,1,0,0,0
50376.262,2,1,0,0,0
50416.3,2,1,0,0,0
50456.275,2,1,0,0,0
50496.207,2,1,0,0,0
50536.241,2,1,0,0,0
50576.229,2,1,0,0,0
50616.255,2,1,0,0,0
50656.272,2,1,0,0,0
50696.25,2,1,0,0,0
50736.211,2,1,0,0,0
50776.229,2,1,0,0,0
50816.266,2,1,0,0,0
50856.246,2,1,0,0,0
50896.312,2,1,0,0,0
50936.247,2,1,0,0,0
50976.214,2,1,0,0,0
51016.238,2,1,0,0,0
51056.267,2,1,0,0,0
51096.255,2,1,0,0,0
51136.275,2,1,0,0,0
51176.208,2,1,0,0,0
51216.231,2,1,0,0,0
51256.253,2,1,0,0,0
51296.271,2,1,0,0,0
51336.271,2,1,0,0,0
51376.268,2,1,0,0,0
51416.214,2,1,0,0,0
51456.237,2,1,0,0,0
51496.227,2,1,0,0,0
51536.274,2,1,0,0,0
51576.247,2,1,0,0,0
51616.26,2,1,0,0,0
51656.212,2,1,0,0,0
51696.259,2,1,0,0,0
51736.274,2,1,0,0,0
51776.238,2,1,0,0,0
51816.265,2,1,0,0,0
51856.243,2,1,0,0,0
51896.206,2,1,0,0,0
51936.246,2,1,0,0,0
51976.263,2,1,0,0,0
52016.309,2,1,0,0,0
52056.263,2,1,0,0,0
52096.21,2,1,0,0,0
52136.236,2,1,0,0,0
52176.24,2,1,0,0,0
52216.27,2,1,0,0,0
52256.286,2,1,0,0,0
52296.261,2,1,0,0,0
52336.204,2,1,0,0,0
52376.25,2,1,0,0,0
52416.217,2,1,0,0,0
52456.264,2,1,0,0,0
52496.284,2,1,0,0,0
52536.281,2,1,0,0,0
52576.213,2,1,0,0,0
52616.243,2,1,0,0,0
52656.264,2,1,0,0,0
52696.305,2,1,0,0,0
52736.284,2,1,0,0,0
52776.24,2,1,0,0,0
52816.233,2,1,0,0,0
52856.237,2,1,0,0,0
52896.269,2,1,0,0,0
52936.28,2,1,0,0,0
52976.263,2,1,0,0,0
53016.208,2,1,0,0,0
53056.234,2,1,0,0,0
53096.239,2,1,0,0,0
53136.286,2,1,0,0,0
53176.278,2,1,0,0,0
53216.256,2,1,0,0,0
53256.202,2,1,0,0,0
53296.263,2,1,0,0,0
53336.227,2,1,0,0,0
53376.249,2,1,0,0,0
53416.295,2,1,0,0,0
53456.242,2,1,0,0,0
53496.206,2,1,0,0,0
53536.244,2,1,0,0,0
53576.274,2,1,0,0,0
53616.257,2,1,0,0,0
53656.29,2,1,0,0,0
53696.22,2,1,0,0,0
53736.235,2,1,0,0,0
53776.231,2,1,0,0,0
53816.29,2,1,0,0,0
53856.259,2,1,0,0,0
53896.273,2,1,0,0,0
53936.204,2,1,0,0,0
53976.24,2,1,0,0,0
54016.221,2,1,0,0,0
54056.266,2,1,0,0,0
54096.257,2,1,0,0,0
54136.256,2,1,0,0,0
54176.217,2,1,0,0,0
54216.235,2,1,0,0,0
54256.284,2,1,0,0,0
54296.243,2,1,0,0,0
54336.314,2,1,0,0,0
54376.243,2,1,0,0,0
54416.213,2,1,0,0,0
54456.253,2,1,0,0,0
54496.266,2,1,0,0,0
54536.286,2,1,0,0,0
54576.272,2,1,0,0,0
54616.254,2,1,0,0,0
54656.231,2,1,0,0,0
54696.249,2,1,0,0,0
54736.264,2,1,0,0,0
54776.278,2,1,0,0,0
54816.275,2,1,0,0,0
54856.208,2,1,0,0,0
54896.246,2,1,0,0,0
54936.227,2,1,0,0,0
54976.259,2,1,0,0,0
55016.266,2,1,0,0,0
55056.263,2,1,0,0,0
55096.208,2,1,0,0,0
55136.247,2,1,0,0,0
55176.289,2,1,0,0,0
55216.247,2,1,0,0,0
55256.276,2,1,0,0,0
55296.264,2,1,0,0,0
55336.242,2,1,0,0,0
55376.234,2,1,0,0,0
55416.263,2,1,0,0,0
55456.262,2,1,0,0,0
55496.265,2,1,0,0,0
55536.207,2,1,0,0,0
55576.234,2,1,0,0,0
55616.235,2,1,0,0,0
55656.262,2,1,0,0,0
55696.291,2,1,0,0,0
55736.266,2,1,0,0,0
55776.206,2,1,0,0,0
55816.256,2,1,0,0,0
55856.205,2,1,0,0,0
55896.265,2,1,0,0,0
55936.291,2,1,0,0,0
55976.248,2,1,0,0,0
56016.208,2,1,0,0,0
56056.239,2,1,0,0,0
56096.269,2,1,0,0,0
56136.256,2,1,0,0,0
56176.267,2,1,0,0,0
56216.237,2,1,0,0,0
56256.216,2,1,0,0,0
56296.229,2,1,0,0,0
56336.284,2,1,0,0,0
56376.254,2,1,0,0,0
56416.265,2,1,0,0,0
56456.203,2,1,0,0,0
56496.234,2,1,0,0,0
56536.237,2,1,0,0,0
56576.27,2,1,0,0,0
56616.285,2,1,0,0,0
56656.25,2,1,0,0,0
56696.221,2,1,0,0,0
56736.238,2,1,0,0,0
56776.279,2,1,0,0,0
56816.286,2,1,0,0,0
56856.295,2,1,0,0,0
56896.27,2,1,0,0,0
56936.234,2,1,0,0,0
56976.228,2,1,0,0,0
57016.264,2,1,0,0,0
57056.284,2,1,0,0,0
57096.269,2,1,0,0,0
57136.232,2,1,0,0,0
57176.247,2,1,0,0,0
57216.262,2,1,0,0,0
57256.263,2,1,0,0,0
57296.301,2,1,0,0,0
57336.267,2,1,0,0,0
57376.201,2,1,0,0,0
57416.238,2,1,0,0,0
57456.228,2,1,0,0,0
57496.265,2,1,0,0,0
57536.281,2,1,0,0,0
57576.274,2,1,0,0,0
57616.201,2,1,0,0,0
57656.246,2,1,0,0,0
57696.251,2,1,0,0,0
57736.249,2,1,0,0,0
57776.28,2,1,0,0,0
57816.248,2,1,0,0,0
57856.199,2,1,0,0,0
57896.242,2,1,0,0,0
57936.272,2,1,0,0,0
57976.242,2,1,0,0,0
58016.272,2,1,0,0,0
58056.237,2,1,0,0,0
58096.233,2,1,0,0,0
58136.235,2,1,0,0,0
58176.29,2,1,0,0,0
58216.282,2,1,0,0,0
58256.261,2,1,0,0,0
58296.217,2,1,0,0,0
58336.239,2,1,0,0,0
58376.217,2,1,0,0,0
58416.265,2,1,0,0,0
58456.256,2,1,0,0,0
58496.258,2,1,0,0,0
58536.22,2,1,0,0,0
58576.243,2,1,0,0,0
58616.283,2,1,0,0,0
58656.241,2,1,0,0,0
58696.269,2,1,0,0,0
58736.244,2,1,0,0,0
58776.204,2,1,0,0,0
58816.247,2,1,0,0,0
58856.266,2,1,0,0,0
58896.272,2,1,0,0,0
58936.288,2,1,0,0,0
58976.209,2,1,0,0,0
59016.232,2,1,0,0,0
59056.245,2,1,0,0,0
59096.264,2,1,0,0,0
59136.28,2,1,0,0,0
59176.285,2,1,0,0,0
59216.205,2,1,0,0,0
59256.245,2,1,0,0,0
59296.215,2,1,0,0,0
59336.283,2,1,0,0,0
59376.262,2,1,0,0,0
59416.283,2,1,0,0,0
59456.208,2,1,0,0,0
59496.24,2,1,0,0,0
59536.284,2,1,0,0,0
59576.243,2,1,0,0,0
59616.306,2,1,0,0,0
59656.233,2,1,0,0,0
59696.221,2,1,0,0,0
59736.234,2,1,0,0,0
59776.266,2,1,0,0,0
59816.287,2,1,0,0,0
59856.264,2,1,0,0,0
59896.202,2,1,0,0,0
59936.24,2,1,0,0,0
59976.232,2,1,0,0,0
60016.257,2,1,0,0,0
60056.28,2,1,0,0,0
60096.259,2,1,0,0,0
60136.215,2,1,0,0,0
60176.241,2,1,0,0,0
60216.207,2,1,0,0,0
60256.261,2,1,0,0,0
60296.29,2,1,0,0,0
60336.246,2,1,0,0,0
60376.209,2,1,0,0,0
60416.241,2,1,0,0,0
60456.269,2,1,0,0,0
60496.302,2,1,0,0,0
60536.287,2,1,0,0,0
60576.214,2,1,0,0,0
60616.214,2,1,0,0,0
60656.239,2,1,0,0,0
60696.257,2,1,0,0,0
60736.258,2,1,0,0,0
60776.288,2,1,0,0,0
60816.206,2,1,0,0,0
60856.249,2,1,0,0,0
60896.235,2,1,0,0,0
60936.281,2,1,0,0,0
60976.247,2,1,0,0,0
61016.259,2,1,0,0,0
61056.209,2,1,0,0,0
61096.241,2,1,0,0,0
61136.266,2,1,0,0,0
61176.261,2,1,0,0,0
61216.294,2,1,0,0,0
61256.263,2,1,0,0,0
61296.213,2,1,0,0,0
61336.246,2,1,0,0,0
61376.26,2,1,0,0,0
61416.259,2,1,0,0,0
61456.292,2,1,0,0,0
61496.224,2,1,0,0,0
61536.236,2,1,0,0,0
61576.241,2,1,0,0,0
61616.269,2,1,0,0,0
61656.281,2,1,0,0,0
61696.286,2,1,0,0,0
61736.208,2,1,0,0,0
61776.243,2,1,0,0,0
61816.223,2,1,0,0,0
61856.268,2,1,0,0,0
61896.271,2,1,0,0,0
61936.246,2,1,0,0,0
61976.209,2,1,0,0,0
62016.239,2,1,0,0,0
62056.268,2,1,0,0,0
62096.247,2,1,0,0,0
62136.306,2,1,0,0,0
62176.251,2,1,0,0,0
62216.207,2,1,0,0,0
62256.28,2,1,0,0,0
62296.261,2,1,0,0,0
62336.285,2,1,0,0,0
62376.274,2,1,0,0,0
62416.247,2,1,0,0,0
62456.255,2,1,0,0,0
62496.238,2,1,0,0,0
62536.272,2,1,0,0,0
62576.286,2,1,0,0,0
62616.294,2,1,0,0,0
62656.209,2,1,0,0,0
62696.254,2,1,0,0,0
62736.215,2,1,0,0,0
62776.256,2,1,0,0,0
62816.286,2,1,0,0,0
62856.233,2,1,0,0,0
62896.212,2,1,0,0,0
62936.237,2,1,0,0,0
62976.27,2,1,0,0,0
63016.259,2,1,0,0,0
63056.281,2,1,0,0,0
63096.254,2,1,0,0,0
63136.2,2,1,0,0,0
63176.248,2,1,0,0,0
63216.265,2,1,0,0,0
63256.254,2,1,0,0,0
63296.282,2,1,0,0,0
63336.204,2,1,0,0,0
63376.249,2,1,0,0,0
63416.233,2,1,0,0,0
63456.28,2,1,0,0,0
63496.251,2,1,0,0,0
63536.287,2,1,0,0,0
63576.207,2,1,0,0,0
63616.255,2,1,0,0,0
63656.218,2,1,0,0,0
63696.254,2,1,0,0,0
63736.304,2,1,0,0,0
63776.236,2,1,0,0,0
63816.212,2,1,0,0,0
63856.239,2,1,0,0,0
63896.271,2,1,0,0,0
63936.285,2,1,0,0,0
63976.278,2,1,0,0,0
64016.234,2,1,0,0,0
64056.219,2,1,0,0,0
64096.236,2,1,0,0,0
64136.269,2,1,0,0,0
64176.281,2,1,0,0,0
64216.291,2,1,0,0,0
64256.203,2,1,0,0,0
64296.24,2,1,0,0,0
64336.263,2,1,0,0,0
64376.264,2,1,0,0,0
64416.276,2,1,0,0,0
64456.262,2,1,0,0,0
64496.237,2,1,0,0,0
64536.247,2,1,0,0,0
64576.276,2,1,0,0,0
64616.26,2,1,0,0,0
64656.288,2,1,0,0,0
64696.25,2,1,0,0,0
64736.212,2,1,0,0,0
64776.231,2,1,0,0,0
64816.267,2,1,0,0,0
64856.255,2,1,0,0,0
64896.271,2,1,0,0,0
64936.213,2,1,0,0,0
64976.242,2,1,0,0,0
65016.252,2,1,0,0,0
65056.266,2,1,0,0,0
65096.293,2,1,0,0,0
65136.26,2,1,0,0,0
65176.222,2,1,0,0,0
65216.231,2,1,0,0,0
65256.229,2,1,0,0,0
65296.273,2,1,0,0,0
65336.271,2,1,0,0,0
65376.236,2,1,0,0,0
65416.215,2,1,0,0,0
65456.26,2,1,0,0,0
65496.234,2,1,0,0,0
65536.269,2,1,0,0,0
65576.301,2,1,0,0,0
65616.243,2,1,0,0,0
65656.201,2,1,0,0,0
65696.238,2,1,0,0,0
65736.265,2,1,0,0,0
65776.251,2,1,0,0,0
65816.269,2,1,0,0,0
65856.208,2,1,0,0,0
65896.235,2,1,0,0,0
65936.243,2,1,0,0,0
65976.3,2,1,0,0,0
66016.275,2,1,0,0,0
66056.315,2,1,0,0,0
66096.203,2,1,0,0,0
66136.24,2,1,0,0,0
66176.216,2,1,0,0,0
66216.27,2,1,0,0,0
66256.259,2,1,0,0,0
66296.277,2,1,0,0,0
66336.211,2,1,0,0,0
66376.236,2,1,0,0,0
66416.243,2,1,0,0,0
66456.289,2,1,0,0,0
66496.281,2,1,0,0,0
66536.26,2,1,0,0,0
66576.202,2,1,0,0,0
66616.229,2,1,0,0,0
66656.26,2,1,0,0,0
66696.287,2,1,0,0,0
66736.265,2,1,0,0,0
66776.261,2,1,0,0,0
66816.241,2,1,0,0,0
66856.23,2,1,0,0,0
66896.271,2,1,0,0,0
66936.298,2,1,0,0,0
66976.266,2,1,0,0,0
67016.202,2,1,0,0,0
67056.247,2,1,0,0,0
67096.242,2,1,0,0,0
67136.262,2,1,0,0,0
67176.316,2,1,0,0,0
67216.237,2,1,0,0,0
67256.201,2,1,0,0,0
67296.25,2,1,0,0,0
67336.274,2,1,0,0,0
67376.265,2,1,0,0,0
67416.288,2,1,0,0,0
67456.254,2,1,0,0,0
67496.212,2,1,0,0,0
67536.234,2,1,0,0,0
67576.27,2,1,0,0,0
67616.285,2,1,0,0,0
67656.263,2,1,0,0,0
67696.21,2,1,0,0,0
67736.233,2,1,0,0,0
67776.231,2,1,0,0,0
67816.268,2,1,0,0,0
67856.253,2,1,0,0,0
67896.251,2,1,0,0,0
67936.213,2,1,0,0,0
67976.257,2,1,0,0,0
68016.21,2,1,0,0,0
68056.269,2,1,0,0,0
68096.3,2,1,0,0,0
68136.244,2,1,0,0,0
68176.206,2,1,0,0,0
68216.23,2,1,0,0,0
68256.287,2,1,0,0,0
68296.259,2,1,0,0,0
68336.308,2,1,0,0,0
68376.213,2,1,0,0,0
68416.245,2,1,0,0,0
68456.23,2,1,0,0,0
68496.264,2,1,0,0,0
68536.289,2,1,0,0,0
68576.284,2,1,0,0,0
68616.237,2,1,0,0,0
68656.238,2,1,0,0,0
68696.236,2,1,0,0,0
68736.265,2,1,0,0,0
68776.274,2,1,0,0,0
68816.283,2,1,0,0,0
68856.202,2,1,0,0,0
68896.255,2,1,0,0,0
68936.252,2,1,0,0,0
68976.253,2,1,0,0,0
69016.284,2,1,0,0,0
69056.25,2,1,0,0,0
69096.203,2,1,0,0,0
69136.237,2,1,0,0,0
69176.261,2,1,0,0,0
69216.247,2,1,0,0,0
69256.288,2,1,0,0,0
69296.237,2,1,0,0,0
69336.252,2,1,0,0,0
69376.232,2,1,0,0,0
69416.301,2,1,0,0,0
69456.284,2,1,0,0,0
69496.274,2,1,0,0,0
69536.211,2,1,0,0,0
69576.238,2,1,0,0,0
69616.219,2,1,0,0,0
69656.284,2,1,0,0,0
69696.296,2,1,0,0,0
69736.252,2,1,0,0,0
69776.207,2,1,0,0,0
69816.237,2,1,0,0,0
69856.229,2,1,0,0,0
69896.259,2,1,0,0,0
69936.292,2,1,0,0,0
69976.265,2,1,0,0,0
70016.22,2,1,0,0,0
70056.246,2,1,0,0,0
70096.271,2,1,0,0,0
70136.259,2,1,0,0,0
70176.272,2,1,0,0,0
70216.233,2,1,0,0,0
70256.245,2,1,0,0,0
70296.238,2,1,0,0,0
70336.305,2,1,0,0,0
70376.258,2,1,0,0,0
70416.281,2,1,0,0,0
70456.208,2,1,0,0,0
70496.235,2,1,0,0,0
70536.224,2,1,0,0,0
70576.273,2,1,0,0,0
70616.256,2,1,0,0,0
70656.256,2,1,0,0,0
70696.224,2,1,0,0,0
70736.24,2,1,0,0,0
70776.275,2,1,0,0,0
70816.265,2,1,0,0,0
70856.301,2,1,0,0,0
70896.26,2,1,0,0,0
70936.222,2,1,0,0,0
70976.246,2,1,0,0,0
71016.273,2,1,0,0,0
71056.306,2,1,0,0,0
71096.276,2,1,0,0,0
71136.214,2,1,0,0,0
71176.239,2,1,0,0,0
71216.238,2,1,0,0,0
71256.274,2,1,0,0,0
71296.291,2,1,0,0,0
71336.263,2,1,0,0,0
71376.204,2,1,0,0,0
71416.233,2,1,0,0,0
71456.239,2,1,0,0,0
71496.258,2,1,0,0,0
71536.295,2,1,0,0,0
71576.241,2,1,0,0,0
71616.213,2,1,0,0,0
71656.232,2,1,0,0,0
71696.28,2,1,0,0,0
71736.27,2,1,0,0,0
71776.268,2,1,0,0,0
71816.248,2,1,0,0,0
71856.231,2,1,0,0,0
71896.258,2,1,0,0,0
71936.274,2,1,0,0,0
71976.303,2,1,0,0,0
72016.283,2,1,0,0,0
72056.205,2,1,0,0,0
72096.236,2,1,0,0,0
72136.224,2,1,0,0,0
72176.266,2,1,0,0,0
72216.279,2,1,0,0,0
72256.238,2,1,0,0,0
72296.206,2,1,0,0,0
72336.244,2,1,0,0,0
72376.235,2,1,0,0,0
72416.251,2,1,0,0,0
72456.292,2,1,0,0,0
72496.242,2,1,0,0,0
72536.213,2,1,0,0,0
72576.252,2,1,0,0,0
72616.268,2,1,0,0,0
72656.259,2,1,0,0,0
72696.288,2,1,0,0,0
72736.226,2,1,0,0,0
72776.248,2,1,0,0,0
72816.237,2,1,0,0,0
72856.277,2,1,0,0,0
72896.259,2,1,0,0,0
72936.275,2,1,0,0,0
72976.204,2,1,0,0,0
73016.237,2,1,0,0,0
73056.226,2,1,0,0,0
73096.264,2,1,0,0,0
73136.254,2,1,0,0,0
73176.248,2,1,0,0,0
73216.205,2,1,0,0,0
73256.232,2,1,0,0,0
73296.283,2,1,0,0,0
73336.277,2,1,0,0,0
73376.32,2,1,0,0,0
73416.249,2,1,0,0,0
73456.238,2,1,0,0,0
73496.234,2,1,0,0,0
73536.265,2,1,0,0,0
73576.283,2,1,0,0,0
73616.269,2,1,0,0,0
73656.205,2,1,0,0,0
73696.228,2,1,0,0,0
73736.246,2,1,0,0,0
73776.259,2,1,0,0,0
73816.303,2,1,0,0,0
73856.257,2,1,0,0,0
73896.202,2,1,0,0,0
73936.235,2,1,0,0,0
73976.21,2,1,0,0,0
74016.266,2,1,0,0,0
74056.256,2,1,0,0,0
74096.237,2,1,0,0,0
74136.202,2,1,0,0,0
74176.239,2,1,0,0,0
74216.267,2,1,0,0,0
74256.256,2,1,0,0,0
74296.28,2,1,0,0,0
74336.227,2,1,0,0,0
74376.218,2,1,0,0,0
74416.239,2,1,0,0,0
74456.284,2,1,0,0,0
74496.283,2,1,0,0,0
74536.257,2,1,0,0,0
74576.204,2,1,0,0,0
74616.228,2,1,0,0,0
74656.237,2,0.99997878074646,-0.0023957714438438416,0.00606117770075798,2.0009705622214824e-05
74696.27,2,0.9999786615371704,-0.0023662843741476536,0.00608950387686491,-6.516298753922456e-07
74736.308,2,0.9999786019325256,-0.0023575732484459877,0.0061032832600176334,1.550441447761841e-05
74776.258,2,0.9999787211418152,-0.0023370375856757164,0.006092901807278395,1.6398460502387024e-05
74816.22,2,0.9999788999557495,-0.0023269187659025192,0.006068375427275896,1.9335344404680654e-05
74856.236,2,0.9999786615371704,-0.002318275859579444,0.00610571913421154,-4.664644166041398e-06
74896.207,2,0.9999786615371704,-0.002327830996364355,0.006102149374783039,1.5173105566645972e-05
74936.264,2,0.99997878074646,-0.002320288447663188,0.006090034730732441,9.64148057391867e-06
74976.286,2,0.9999789595603943,-0.0022823307663202286,0.0060770572163164616,3.0085880098340567e-06
75016.252,2,0.9999789595603943,-0.0022781931329518557,0.006077702157199383,-9.965000572265126e-06
75056.211,2,0.9999791979789734,-0.0022557834163308144,0.006043014116585255,-9.779020729183685e-06
75096.227,2,0.9999791979789734,-0.002292232820764184,0.006028536707162857,-2.8175595616630744e-06
75136.254,2,0.9999791979789734,-0.002223582938313484,0.006053856108337641,-3.684949206217425e-06
75176.256,2,0.9999792575836182,-0.0022149549331516027,0.006045439746230841,-7.843546882213559e-06
75216.261,2,0.9999793171882629,-0.0021769036538898945,0.0060498579405248165,5.760670319432393e-06
75256.243,2,0.9999793767929077,-0.0021673894952982664,0.006048479117453098,-3.0247336326283403e-05
75296.225,2,0.9999796152114868,-0.0021170335821807384,0.006028787232935429,2.0750514522660524e-05
75336.231,2,0.9999796748161316,-0.002100316109135747,0.006016508676111698,9.930874512065202e-06
75376.257,2,0.9999796748161316,-0.0020944583229720592,0.006023761350661516,2.2858263037051074e-05
75416.276,2,0.999979555606842,-0.002093074144795537,0.006041495129466057,2.6577057724352926e-05
75456.27,2,0.9999793767929077,-0.002082445425912738,0.006078111473470926,2.845645030902233e-05
75496.2,2,0.9999791979789734,-0.0020915514323860407,0.006101067177951336,8.884218914317898e-06
75536.248,2,0.9999791383743286,-0.0020861742086708546,0.006114802788943052,1.7101461708080024e-05
75576.226,2,0.9999790787696838,-0.002097165212035179,0.006123679224401712,5.6643137213541195e-05
75616.266,2,0.9999791383743286,-0.0020944983698427677,0.006109939888119698,3.550182736944407e-05
75656.27,2,0.9999789595603943,-0.002117821713909507,0.0061279782094061375,1.5719057046226226e-05
75696.267,2,0.99997878074646,-0.0021316197235137224,0.0061520542949438095,2.783868694677949e-05
75736.201,2,0.9999785423278809,-0.0021688661072403193,0.00618060864508152,9.253782877749472e-07
75776.23,2,0.9999783635139465,-0.0021863840520381927,0.006202188320457935,-2.8795555408578366e-05
75816.274,2,0.9999786019325256,-0.002170589519664645,0.006170823238790035,-2.6993415303877555e-05
75856.245,2,0.9999785423278809,-0.002212613122537732,0.006168154533952475,2.5015679057105444e-05
75896.279,2,0.99997878074646,-0.0022144708782434464,0.00612632418051362,-1.8125294445781037e-05
75936.262,2,0.9999787211418152,-0.0022297906689345837,0.006128598470240831,-7.832393748685718e-06
75976.199,2,0.9999786615371704,-0.0022710058838129044,0.006128806620836258,-5.484130451804958e-05
76016.227,2,0.9999788403511047,-0.0022868074011057615,0.0060899569652974606,-5.169294308871031e-05
76056.26,2,0.9999786019325256,-0.0023305658251047134,0.00610776012763381,-4.952492963639088e-05
76096.283,2,0.9999784827232361,-0.0023648031055927277,0.006119148340076208,-2.1196268789935857e-05
76136.276,2,0.9999784231185913,-0.002409768057987094,0.0061067212373018265,-5.749781121267006e-05
76176.241,2,0.9999783039093018,-0.002442284720018506,0.006118512712419033,-6.211275467649102e-05
76216.232,2,0.9999781847000122,-0.002484274562448263,0.00611741142347455,-4.249857738614082e-05
76256.235,2,0.9999783039093018,-0.002490258077159524,0.006093848031014204,-5.467293885885738e-05
76296.268,2,0.9999783635139465,-0.002502866555005312,0.0060841781087219715,-4.1136394429486245e-05
76336.276,2,0.9999780654907227,-0.0025215402711182833,0.0061201127246022224,-3.66121057595592e-05
76376.315,2,0.9999781250953674,-0.002520763548091054,0.006116124335676432,3.1922556900099153e-06
76416.215,2,0.9999781250953674,-0.0025627450086176395,0.006094336975365877,-3.248631037422456e-05
76456.231,2,0.9999779462814331,-0.0026078287046402693,0.006109636276960373,-2.455896719766315e-05
76496.216,2,0.9999778866767883,-0.002607718575745821,0.0061184316873550415,2.20848924072925e-05
76536.273,2,0.9999780058860779,-0.0025662460830062628,0.006119825877249241,1.667664764681831e-05
76576.288,2,0.9999781847000122,-0.002517660381272435,0.006108624394983053,-4.902517503069248e-06
76616.228,2,0.9999778866767883,-0.0025672914925962687,0.0061373342759907246,-5.363349828257924e-06
76656.203,2,0.9999778866767883,-0.0025789164938032627,0.006131437141448259,-2.6876577976508997e-05
76696.229,2,0.9999779462814331,-0.002591358497738838,0.006118462421000004,-4.675946547649801e-05
76736.247,2,0.9999778270721436,-0.0025970395654439926,0.006128540262579918,-5.20115063409321e-05
76776.262,2,0.9999778866767883,-0.0026025278493762016,0.0061168665997684,-5.1915194489993155e-05
76816.289,2,0.999977707862854,-0.0026277906727045774,0.0061342474073171616,-7.39891838748008e-05
76856.264,2,0.9999777674674988,-0.002610177965834737,0.006139386910945177,-0.00011211921082576737
76896.201,2,0.999977707862854,-0.0026545249857008457,0.0061286319978535175,-7.029264816083014e-05
76936.238,2,0.9999775886535645,-0.002664037048816681,0.006144754122942686,-5.3010269766673446e-05
76976.258,2,0.9999775290489197,-0.0026806702371686697,0.00614129425957799,-3.955427746404894e-05
77016.272,2,0.9999775290489197,-0.0026869585271924734,0.006146321073174477,-5.100292037241161e-05
77056.27,2,0.9999775290489197,-0.002707693725824356,0.006132821552455425,-8.888867887435481e-05
77096.2,2,0.9999774098396301,-0.002736519556492567,0.006135704927146435,-0.00010301874863216653
77136.234,2,0.9999773502349854,-0.0027050890494138002,0.006157301366329193,-0.00011974483641097322
77176.234,2,0.9999772310256958,-0.002726747654378414,0.0061746565625071526,-0.00010968520655296743
77216.267,2,0.9999771118164062,-0.00275241956114769,0.006176528055220842,-0.00010729314817581326
77256.274,2,0.9999770522117615,-0.002729403553530574,0.006197165697813034,-0.00011454652849351987
77296.263,2,0.9999768137931824,-0.002723229816183448,0.006243111100047827,-0.00010462225327501073
77336.2,2,0.9999767541885376,-0.0027175904251635075,0.0062515996396541595,-0.00012096255522919819
77376.228,2,0.9999767541885376,-0.002739992458373308,0.0062385802157223225,-8.375348261324689e-05
77416.223,2,0.9999765157699585,-0.0027441694401204586,0.006281730718910694,-7.23765479051508e-05
77456.311,2,0.9999765753746033,-0.0027439941186457872,0.006272147875279188,-7.110164733603597e-05
77496.254,2,0.999976634979248,-0.0027277288027107716,0.006265044212341309,-8.054648787947372e-05
77536.233,2,0.999976396560669,-0.002724404213950038,0.006310147233307362,-9.674847387941554e-05
77576.206,2,0.9999762177467346,-0.0027599006425589323,0.006324356887489557,-6.856085383333266e-05
77616.228,2,0.9999760389328003,-0.0027884598821401596,0.0063398899510502815,-8.11516511021182e-05
77656.26,2,0.9999759793281555,-0.0028352488297969103,0.006322502624243498,-0.00010884688526857644
77696.264,2,0.9999758005142212,-0.002878024475648999,0.006331627257168293,-0.00011016052303602919
77736.266,2,0.9999758005142212,-0.0028748128097504377,0.006332980468869209,-7.908341649454087e-05
77776.236,2,0.9999759197235107,-0.002882173052057624,0.0063080252148211,-9.963129559764639e-05
77816.204,2,0.9999759793281555,-0.0028579162899404764,0.006311393342912197,-0.00014937778178136796
77856.251,2,0.9999759197235107,-0.002891747746616602,0.006305354181677103,-0.000118160096462816
77896.253,2,0.9999761581420898,-0.0028621021192520857,0.0062880259938538074,-8.949298353400081e-05
77936.289,2,0.9999762773513794,-0.0028247826267033815,0.006281645968556404,-9.403505828231573e-05
77976.252,2,0.9999762177467346,-0.0028117934707552195,0.006300110369920731,-0.0001092049787985161
78016.2,2,0.9999761581420898,-0.0028184817638248205,0.006304326467216015,-8.502027776557952e-05
78056.231,2,0.9999762773513794,-0.0028085140511393547,0.006284278817474842,-0.00010392798139946535
78096.228,2,0.9999762177467346,-0.002803484443575144,0.006298101972788572,-0.00012814850197173655
78136.252,2,0.9999763369560242,-0.002833572681993246,0.006266297306865454,-0.0001011319545796141
78176.273,2,0.9999765753746033,-0.0027894361410290003,0.006249533034861088,-9.498622239334509e-05
78216.28,2,0.9999764561653137,-0.0027959696017205715,0.006262575276196003,-7.034572627162561e-05
78256.222,2,0.9999763369560242,-0.0028392821550369263,0.006268954370170832,-3.564568760339171e-05
78296.228,2,0.9999764561653137,-0.0028528983239084482,0.006236229557543993,-1.3291195500642061e-05
78336.228,2,0.9999765753746033,-0.0028760640416294336,0.006214302033185959,-4.942821033182554e-05
78376.258,2,0.9999767541885376,-0.0028593994211405516,0.006185044068843126,-5.803412932436913e-05
78416.288,2,0.9999769330024719,-0.0028879872988909483,0.006148557178676128,-4.4382657506503165e-05
78456.262,2,0.9999767541885376,-0.002931613940745592,0.006151138339191675,-5.747325485572219e-05
78496.199,2,0.9999768733978271,-0.002918874379247427,0.0061457231640815735,-6.429214408854023e-05
78536.231,2,0.9999769330024719,-0.002920893020927906,0.0061287409625947475,-3.799029946094379e-05
78576.261,2,0.9999771118164062,-0.0029049853328615427,0.006112461443990469,-3.613452645367943e-05
78616.228,2,0.9999772310256958,-0.0028961626812815666,0.006094899959862232,1.0999850701409741e-06
78656.283,2,0.9999774694442749,-0.0028719063848257065,0.00606594467535615,-1.7864898836705834e-05
78696.255,2,0.9999775290489197,-0.002873780904337764,0.006059376988559961,-1.1263859050814062e-05
78736.216,2,0.9999775886535645,-0.0029167598113417625,0.0060281092301011086,7.784436093061231e-06
78776.236,2,0.9999775290489197,-0.0029263864271342754,0.006034456193447113,3.198342164978385e-05
78816.26,2,0.9999774694442749,-0.0029412927106022835,0.006034571211785078,1.0133877367479727e-05
78856.293,2,0.9999775886535645,-0.002927854424342513,0.006024445407092571,-2.8653173558268463e-06
78896.262,2,0.9999775886535645,-0.0029348256066441536,0.00601791450753808,2.6384490411146544e-05
78936.211,2,0.9999775886535645,-0.0029474764596670866,0.006009032484143972,3.563520294846967e-05
78976.224,2,0.9999777674674988,-0.002930815564468503,0.005984787363559008,3.3378670195816085e-05
79016.224,2,0.9999777674674988,-0.002933730836957693,0.005987341515719891,2.3909118681331165e-05
79056.262,2,0.9999777674674988,-0.002941424958407879,0.005979575216770172,2.0625262550311163e-05
79096.267,2,0.9999775886535645,-0.0029588141478598118,0.006005266681313515,5.892535773455165e-05
79136.261,2,0.9999776482582092,-0.0029475302435457706,0.006002448964864016,7.069837010931224e-05
79176.204,2,0.9999777674674988,-0.0029162915889173746,0.005997600499540567,6.17503173998557e-05
79216.248,2,0.9999778866767883,-0.002903994172811508,0.005985922180116177,7.977185305207968e-05
79256.21,2,0.9999778866767883,-0.002922546584159136,0.0059682573191821575,7.313954847631976e-05
79296.279,2,0.9999779462814331,-0.002884337678551674,0.005977614317089319,7.151476893341169e-05
79336.277,2,0.9999781250953674,-0.00287637603469193,0.005951952654868364,9.209970448864624e-05
79376.226,2,0.9999780654907227,-0.002894851379096508,0.005953461863100529,0.00010458564065629616
79416.203,2,0.9999781250953674,-0.002873164601624012,0.0059589543379843235,0.00013784297334495932
79456.229,2,0.9999781250953674,-0.0028720428235828876,0.005954400170594454,0.0001376300788251683
79496.252,2,0.9999781250953674,-0.002855662489309907,0.005961655173450708,0.0001405504735885188
79536.291,2,0.9999778866767883,-0.002876424230635166,0.005997349042445421,0.00013011612463742495
79576.268,2,0.9999775886535645,-0.0029246413614600897,0.006021194159984589,0.00013914679584559053
79616.22,2,0.9999775886535645,-0.0029315485153347254,0.0060157133266329765,0.00011961819109274074
79656.228,2,0.9999776482582092,-0.0029517991933971643,0.005996002350002527,0.0001209115725941956
79696.242,2,0.999977707862854,-0.0029623601585626602,0.005977941211313009,0.00016140175284817815
79736.266,2,0.9999777674674988,-0.0029751763213425875,0.005967515986412764,0.0001611705229151994
79776.251,2,0.9999777674674988,-0.0029780869372189045,0.005965230520814657,0.00010729586210800335
79816.257,2,0.9999776482582092,-0.002980946796014905,0.005983351264148951,0.00010266643221257254
79856.202,2,0.999977707862854,-0.002985484665259719,0.005969533696770668,0.0001145773203461431
79896.224,2,0.9999776482582092,-0.002990331267938018,0.005979970563203096,0.00010152309550903738
79936.222,2,0.999977707862854,-0.0029788119718432426,0.005976831074804068,7.891395944170654e-05
79976.26,2,0.999977707862854,-0.0029523458797484636,0.005983811803162098,9.001623402582482e-05
80016.239,2,0.999977707862854,-0.002944184234365821,0.005992705002427101,8.943219290813431e-05
80056.246,2,0.999977707862854,-0.0029242041055113077,0.006002031732350588,8.74582547112368e-05
80096.206,2,0.9999778270721436,-0.0028931114356964827,0.005999940913170576,7.0333102485165e-05
80136.227,2,0.9999777674674988,-0.0028822231106460094,0.006010089535266161,6.619478517677635e-05
80176.274,2,0.9999778866767883,-0.0028679482638835907,0.0059981499798595905,5.557582699111663e-05
80216.261,2,0.9999777674674988,-0.002896666992455721,0.00600811094045639,4.756060297950171e-05
80256.259,2,0.9999778270721436,-0.0028830058872699738,0.0060060168616473675,4.458831244846806e-05
80296.235,2,0.9999775886535645,-0.0029249372892081738,0.006022229790687561,1.8327376892557368e-05
80336.207,2,0.9999777674674988,-0.002907002344727516,0.006005219183862209,5.0572125473991036e-05
80376.226,2,0.999977707862854,-0.0029566672164946795,0.005988383665680885,6.115341238910332e-05
80416.26,2,0.9999775290489197,-0.0029634987004101276,0.006016326602548361,6.033890531398356e-05
80456.277,2,0.9999775290489197,-0.0030153351835906506,0.005988608580082655,1.3616965588880703e-05
80496.279,2,0.9999776482582092,-0.003007827326655388,0.005975153762847185,4.004107540822588e-05
80536.224,2,0.9999775886535645,-0.0030245468951761723,0.005976577289402485,4.9279071390628815e-05
80576.24,2,0.9999776482582092,-0.0030188376549631357,0.00596419395878911,5.661577233695425e-05
80616.238,2,0.999977707862854,-0.0030163985211402178,0.005954461172223091,5.528451583813876e-05
80656.294,2,0.9999775886535645,-0.0030547340866178274,0.0059570977464318275,8.49824064061977e-05
80696.274,2,0.9999777674674988,-0.003022338030859828,0.00594501243904233,9.485466580372304e-05
80736.281,2,0.9999776482582092,-0.003023180877789855,0.005964313633739948,9.689079161034897e-05
80776.21,2,0.9999775290489197,-0.0030430532060563564,0.005976847838610411,0.00010367273353040218
80816.233,2,0.9999774098396301,-0.003045171033591032,0.005986127071082592,0.00011801859363913536
80856.215,2,0.9999775290489197,-0.0030495813116431236,0.00596923753619194,0.00011577010445762426
80896.261,2,0.999977707862854,-0.003026154823601246,0.005955445114523172,0.00012640601198654622
80936.279,2,0.9999775886535645,-0.003023577155545354,0.005974440835416317,0.0001084227260435
80976.227,2,0.9999774694442749,-0.0030415994115173817,0.005985920783132315,0.00010410829418106005
81016.199,2,0.9999775886535645,-0.003042312106117606,0.005960575304925442,9.703941032057628e-05
81056.234,2,0.9999773502349854,-0.003094747196882963,0.005972165148705244,6.686304550385103e-05
81096.243,2,0.9999773502349854,-0.003094583982601762,0.005975193344056606,6.680475053144619e-05
81136.238,2,0.9999775290489197,-0.003083118936046958,0.0059487358666956425,7.154806371545419e-05
81176.281,2,0.9999774694442749,-0.00309945410117507,0.005955302156507969,3.705337439896539e-05
81216.235,2,0.9999772310256958,-0.003116992535069585,0.00598687632009387,2.155504989787005e-05
81256.204,2,0.9999769926071167,-0.0031479382887482643,0.006009199190884829,1.5564322893624194e-05
81296.229,2,0.9999771118164062,-0.0031300403643399477,0.0059976521879434586,-2.3950542527018115e-05
81336.267,2,0.9999769926071167,-0.0031569988932460546,0.006003533024340868,-1.6397574654547498e-05
81376.299,2,0.9999771118164062,-0.003149798372760415,0.005984489340335131,-2.455178582749795e-05
81416.277,2,0.9999772310256958,-0.003145352005958557,0.00596508989110589,-5.6703480368014425e-05
81456.2,2,0.9999773502349854,-0.003106025978922844,0.005971469450742006,-5.3134321206016466e-05
81496.226,2,0.9999773502349854,-0.0031176682095974684,0.005959799513220787,-2.5402561732335016e-05
81536.234,2,0.9999772906303406,-0.003122310619801283,0.005972384940832853,-3.070672391913831e-05
81576.259,2,0.9999777674674988,-0.0030422613490372896,0.005929448641836643,-1.5207103388092946e-05
81616.275,2,0.9999778270721436,-0.003041574265807867,0.005928955040872097,1.064956722984789e-05
81656.263,2,0.9999780058860779,-0.003028769511729479,0.005905314814299345,-1.5430519852088764e-05
81696.201,2,0.999978244304657,-0.0030180918984115124,0.0058642723597586155,1.3439981557894498e-05
81736.252,2,0.9999783039093018,-0.0030314165633171797,0.005846385378390551,2.6647301638149656e-05
81776.212,2,0.999978244304657,-0.0030380291864275932,0.005858574528247118,5.098354085930623e-05
81816.255,2,0.999978244304657,-0.0030451342463493347,0.005847705528140068,5.7221954193664715e-05
81856.267,2,0.9999783635139465,-0.00302651128731668,0.005842726211994886,5.373821113607846e-05
81896.252,2,0.9999784827232361,-0.003024418605491519,0.005824747029691935,6.156139716040343e-05
81936.206,2,0.9999785423278809,-0.0030196895822882652,0.005811112932860851,4.776057539856993e-05
81976.231,2,0.9999783635139465,-0.0030264882370829582,0.005840163677930832,3.997419844381511e-05
82016.28,2,0.9999784827232361,-0.0030194572173058987,0.005826433189213276,9.247077287000138e-06
82056.229,2,0.9999783039093018,-0.0030426315497606993,0.00584487384185195,-1.1416054803703446e-05
82096.297,2,0.999978244304657,-0.0030130078084766865,0.005867865867912769,-5.121715730638243e-05
82136.225,2,0.9999785423278809,-0.0029933489859104156,0.005829408299177885,-2.8498543542809784e-05
82176.214,2,0.9999784827232361,-0.002961773658171296,0.0058579514734447,-1.2316475476836786e-05
82216.232,2,0.9999784231185913,-0.0029470501467585564,0.005875739268958569,1.258278098248411e-05
82256.258,2,0.9999784827232361,-0.0029380484484136105,0.005861736834049225,-1.3373200090427417e-05
82296.251,2,0.9999785423278809,-0.002897305879741907,0.005878436379134655,-3.889881554641761e-05
82336.275,2,0.9999784231185913,-0.0029196334071457386,0.005887113977223635,1.723089735605754e-05
82376.211,2,0.9999783635139465,-0.002926059067249298,0.005887192208319902,7.793878467055038e-06
82416.228,2,0.999978244304657,-0.0029378177132457495,0.00590507872402668,-2.8376723548717564e-07
82456.23,2,0.999978244304657,-0.0029333680868148804,0.005904033314436674,1.7441509044147097e-05
82496.25,2,0.999978244304657,-0.0029467276763170958,0.005906007718294859,2.035706529568415e-05
82536.277,2,0.999978244304657,-0.0029509400483220816,0.005897823721170425,-1.3032615697738947e-06
82576.261,2,0.9999781250953674,-0.0029983778949826956,0.00589414220303297,-5.056377631262876e-06
82616.199,2,0.9999781250953674,-0.0030074731912463903,0.005893646273761988,-1.7676831703283824e-05
82656.226,2,0.9999780058860779,-0.0029946714639663696,0.005918997339904308,-3.1586641853209585e-05
82696.206,2,0.9999780654907227,-0.0029949666932225227,0.005910241510719061,-4.050978895975277e-05
82736.273,2,0.9999781250953674,-0.0030048112384974957,0.0058956630527973175,-4.375076059659477e-06
82776.295,2,0.999978244304657,-0.002978882985189557,0.005887599196285009,4.731932108370529e-07
82816.242,2,0.999978244304657,-0.003011198714375496,0.0058714039623737335,-7.387055575236445e-06
82856.203,2,0.9999784231185913,-0.002992738736793399,0.005844049155712128,7.590245331812184e-06
82896.229,2,0.9999783635139465,-0.0030098638962954283,0.00584540655836463,3.1373627280117944e-05
82936.262,2,0.9999783039093018,-0.0030392722692340612,0.005845946725457907,6.587841926375404e-05
82976.281,2,0.9999783039093018,-0.003034051740542054,0.005843108519911766,6.578759348485619e-05
83016.267,2,0.9999783635139465,-0.0030148541554808617,0.005850594490766525,7.22168042557314e-05
83056.23,2,0.9999786019325256,-0.0030295089818537235,0.005796763580292463,8.798648195806891e-05
83096.211,2,0.9999785423278809,-0.003047293983399868,0.005793638527393341,8.788374543655664e-05
83136.227,2,0.9999786615371704,-0.003027948085218668,0.0057849823497235775,9.463309834245592e-05
83176.267,2,0.9999784827232361,-0.003067278303205967,0.005794425029307604,8.972230716608465e-05
83216.283,2,0.9999783039093018,-0.003107646247372031,0.005812164396047592,6.734584167134017e-05
83256.287,2,0.9999781847000122,-0.003106027841567993,0.005824894178658724,4.3488489609444514e-05
83296.23,2,0.9999781847000122,-0.003152012825012207,0.005802392028272152,1.4689429008285515e-05
83336.23,2,0.9999783039093018,-0.0031317132525146008,0.0057913572527468204,2.6993029678124003e-05
83376.219,2,0.9999783635139465,-0.003115385537967086,0.005794743541628122,4.691112189902924e-05
83416.273,2,0.9999784231185913,-0.0031262647826224566,0.005774122197180986,-4.907050424662884e-06
83456.267,2,0.9999784231185913,-0.0031212361063808203,0.005780175793915987,-4.893200184596935e-06
83496.249,2,0.9999781250953674,-0.0031197932548820972,0.005836152471601963,-1.5213468032015953e-05
83536.204,2,0.9999780654907227,-0.0031415431294590235,0.005828020628541708,-1.6685935406712815e-05
83576.231,2,0.9999780654907227,-0.0031753662042319775,0.005816709715873003,-4.1956573113566265e-05
83616.288,2,0.9999781250953674,-0.0031550468411296606,0.005815750453621149,-4.431977868080139e-05
83656.262,2,0.9999779462814331,-0.00316312606446445,0.005835745483636856,-3.253372778999619e-05
83696.288,2,0.9999781250953674,-0.00311893317848444,0.005831351038068533,-1.871656786534004e-05
83736.259,2,0.9999778866767883,-0.003145744791254401,0.005861059296876192,2.185533412557561e-05
83776.204,2,0.9999780058860779,-0.0031346085015684366,0.005842516664415598,-1.4973466022638604e-05
83816.232,2,0.9999781250953674,-0.003120778826996684,0.005834815092384815,3.668411864055088e-06
83856.265,2,0.9999781847000122,-0.0030812073964625597,0.0058409227058291435,-8.429621630057227e-06
83896.278,2,0.9999783635139465,-0.003053070744499564,0.0058228131383657455,-4.720726064988412e-05
83936.275,2,0.999978244304657,-0.003063380252569914,0.005836875643581152,-6.10965071246028e-05
83976.237,2,0.9999783635139465,-0.00307654426433146,0.005817694123834372,-9.53072085394524e-05
84016.227,2,0.9999781847000122,-0.0030496171675622463,0.005854781251400709,-8.15873354440555e-05
84056.231,2,0.9999781847000122,-0.003080459078773856,0.005839528515934944,-8.91818490345031e-05
84096.265,2,0.9999780058860779,-0.003098332555964589,0.005864488892257214,-8.163849270204082e-05
84136.271,2,0.9999781250953674,-0.0030820525716990232,0.005849005654454231,-9.851244249148294e-05
84176.256,2,0.999978244304657,-0.0030927734915167093,0.005821576341986656,-8.763122605159879e-05
84216.216,2,0.9999783039093018,-0.0030777037609368563,0.005820739548653364,-0.00010130189912160859
84256.243,2,0.9999783039093018,-0.0030462341383099556,0.005838511046022177,-0.00011993395310128108
84296.22,2,0.9999780654907227,-0.0030681018251925707,0.005867221392691135,-0.00016839816817082465
84336.281,2,0.9999778866767883,-0.0030680138152092695,0.005897479131817818,-0.0001406017690896988
84376.256,2,0.9999778270721436,-0.0031025251373648643,0.005890899803489447,-0.00013204979768488556
84416.241,2,0.9999776482582092,-0.0031231686007231474,0.005914566107094288,-0.00010804437624756247
84456.201,2,0.9999777674674988,-0.003114288905635476,0.005895264912396669,-9.886798216030002e-05
84496.226,2,0.999977707862854,-0.003137730062007904,0.005889164283871651,-7.048829866107553e-05
